,business_id,name,neighborhood,address,city,state,postal_code,latitude,longitude,stars,review_count,is_open,categories
14,fNMVV_ZX7CJSDWQGdOM8Nw,"""Showmars Government Center""",Uptown,"""600 E 4th St""",Charlotte,NC,28202,35.2216474,-80.8393449,3.5,7,1,Restaurants;American (Traditional)
25,1K4qrnfyzKzGgJPBEcJaNQ,"""Chula Taberna Mexicana""",Leslieville,"""1058 Gerrard Street E""",Toronto,ON,M4M 3A6,43.6692562,-79.3359022,3.5,39,1,Tiki Bars;Nightlife;Mexican;Restaurants;Bars
50,-ooEO2YqDQVYNHnSF2BPfw,"""Restaurant Lucca""",Rosemont-La Petite-Patrie,"""12 Rue Dante""",Montréal,QC,H2S 1J5,45.5328965,-73.6136037,4.5,11,1,Italian;Restaurants
52,Pd52CjgyEU3Rb8co6QfTPw,"""Flight Deck Bar & Grill""",Southeast,"""6730 S Las Vegas Blvd""",Las Vegas,NV,89119,36.0669136,-115.1708484,4.0,13,1,Nightlife;Bars;Barbeque;Sports Bars;American (New);Restaurants
53,4srfPk1s8nlm1YusyDUbjg,"""Subway""",Southeast,"""6889 S Eastern Ave, Ste 101""",Las Vegas,NV,89119,36.0646523,-115.1189541,2.5,6,1,Fast Food;Restaurants;Sandwiches
54,n7V4cD-KqqE3OXk0irJTyA,"""GameWorks""",Southeast,"""6587 Las Vegas Blvd S, Ste 171""",Las Vegas,NV,89119,36.0682585154,-115.1788768,3.0,349,1,Arcades;Arts & Entertainment;Gastropubs;Restaurants;American (New)
55,c_XbaJqhm-5ycSBOkVUBmg,"""Don Taco""",Ville-Marie,"""1855 Rue Saint Catherine Ouest, H3H 1M2""",Montreal,QC,H3H 1M2,45.4932164,-73.5803794,3.5,33,1,Restaurants;Mexican
57,spDZkD6cp0JUUm6ghIWHzA,"""Kitchen M""",Unionville,"""8515 McCowan Road""",Markham,ON,L3P 5E5,43.867918,-79.2836865,3.0,80,1,Restaurants;Chinese
68,F31RycVVooeIOp9jsXmg6g,"""The Bluebird Cafe""",Cannonmills,"""5 Canonmills""",Edinburgh,MLN,EH3 5HA,55.9624442,-3.1976623,4.5,16,1,Breakfast & Brunch;Diners;Restaurants;Cafes;British
75,o1fTwfqN0sDFNpV1CkOPPg,"""Crazy Mocha Coffee""",Lawrenceville,"""4032 Butler St""",Pittsburgh,PA,15201,40.4692949,-79.9612733,3.5,16,1,Restaurants;Sandwiches;Coffee & Tea;Food
81,B5EZlEDH6AVDk8tQGHAGqg,"""Villa Tap""",Sherman,"""2302 Packers Ave""",Madison,WI,53704,43.1233893,-89.3553901,4.0,34,1,American (Traditional);Nightlife;Dive Bars;Restaurants;Bars
96,dTWfATVrBfKj7Vdn0qWVWg,"""Flavor Cuisine""",Scarborough,"""8 Glen Watford Drive""",Toronto,ON,M1S 2C1,43.7870613,-79.2761657,3.0,6,1,Restaurants;Chinese;Food Court
113,sJ0MYSAIVK28cMzh-s-NPA,"""Amaya Express""",Downtown Core,"""Eaton Centre, 220 Yonge St""",Toronto,ON,M5B 2L7,43.6540667,-79.3800815,2.5,34,1,Indian;Restaurants;Fast Food
116,gIVjdDWRnS1yDVpPF3oUeg,"""Pizza Pizza""",Milliken,"""7665 Kennedy Road""",Markham,ON,L3R 0L7,43.841217,-79.303936,4.0,8,1,Italian;Chicken Wings;Fast Food;Restaurants;Pizza
122,Wpt0sFHcPtV5MO9He7yMKQ,"""McDonald's""",Eastside,"""3020 E Desert Inn Rd""",Las Vegas,NV,89121,36.1300128,-115.10931,2.0,20,1,Restaurants;Fast Food;Burgers
126,WUiDaFQRZ8wKYGLvmjFjAw,"""China Buffet""",University City,"""8630 University Executive Park Dr""",Charlotte,NC,28262,35.306173,-80.752672,3.5,76,1,Buffets;Restaurants;Sushi Bars;Chinese
127,nAFI7JZEhmvUKMKSA_5Chg,"""Nesenbach""",Rathaus,"""Dorotheenstr. 6""",Stuttgart,BW,70173,48.7754525455,9.1807370248,2.5,7,1,Cafes;Nightlife;Wine Bars;Bars;Restaurants
128,5q6Xh-UcJa78bp6dzyaE7w,"""Duck Donuts""",Dilworth,"""1710 Kenilworth Ave, Ste 220""",Charlotte,NC,28203,35.2026242,-80.8444191,4.5,373,1,Breakfast & Brunch;Food;Coffee & Tea;Donuts;Restaurants
133,W1Yr6c2XDx_RBjb6WsV-aQ,"""Divine Cafe at the Springs Preserve""",Westside,"""333 S Valley View Blvd""",Las Vegas,NV,89152,36.1707064994,-115.190288481,4.0,140,1,Restaurants;Cafes;American (New);Bars;Nightlife;Wine Bars
135,SJAggfn8ta7XLD98XD2mkw,"""QDC Burger""",Saint-Laurent,"""975 Boulevard Roméo-Vachon Nord""",Dorval,QC,H4Y 1H1,45.4572636735,-73.7515835661,3.0,11,1,Burgers;Fast Food;Restaurants
146,-McKyjNSqS1h9dDJH3dyUA,"""Restaurant Plenum""",Oberer Schlossgarten,"""Konrad-Adenauer-Str. 3""",Stuttgart,BW,70173,48.7787468,9.1835106,3.5,15,1,Restaurants;Coffee & Tea;Cafes;German;Food
154,JmKgz6n7zn24F-WkgT-kiA,"""Maki My Way""",St. Lawrence,"""7 King Street E""",Toronto,ON,M5C 3C5,43.6491517002,-79.3774947524,4.5,7,1,Restaurants;Sushi Bars;Japanese;Asian Fusion
172,UlI0TksGFiIXtcbtg2KalQ,"""Mi Pho Song Vu""",Downsview,"""2109 Jane Street""",North York,ON,M3M 1A2,43.7184236,-79.5079286,2.5,38,1,Restaurants;Thai;Vietnamese;Chinese
178,mLP-jIIRdoaYM7fJqqFurw,"""Napoli Pizzeria""",Squirrel Hill,"""2006 Murray Ave""",Pittsburgh,PA,15217,40.434399,-79.9229828,4.0,53,1,Italian;Pizza;Restaurants;Salad
181,t8yi2l7pZF43Rlf9_lHdDA,"""Hero Certified Burgers - King & Yonge""",Downtown Core,"""79A Yonge Street""",Toronto,ON,M5C 1S8,43.6495217,-79.3779103,2.5,29,1,Burgers;Restaurants
184,5GAXZ7gJ81TSR0-Q6AMp_A,"""Via Panini""",Edgeley,"""90 Edgeley Boulevard""",Vaughan,ON,L4K 5C7,43.7964604062,-79.5332054719,4.0,7,1,Italian;Restaurants
218,NOHh2pgOTUBqp82IQlRQMQ,"""Panagio's All Day Grill""",Scarborough,"""1928 McCowan Road""",Scarborough,ON,M1S 4K1,43.7929785,-79.2602761,3.5,110,1,Canadian (New);Restaurants;Breakfast & Brunch
228,aD4qhONCE5catMdQC4sqwg,"""Reginos Pizza""",Upper Beach,"""3331 Danforth Avenue""",Scarborough,ON,M1L 1C5,43.6868362415,-79.2938377817,3.5,10,1,Restaurants;Pizza
248,Rh2smrKvcamnP8VBUgMI0Q,"""Dim Sum King Seafood Restaurant""",Chinatown,"""421 Dundas St W, 3rd Fl""",Toronto,ON,M5T 1G6,43.653324,-79.395372,3.5,165,1,Chinese;Restaurants;Dim Sum
250,O_UC_izJXcAmkm6HlEyGSA,"""Playa Cabana""",The Annex,"""111 Dupont Street""",Toronto,ON,M5R 1V4,43.6759577693,-79.4011840224,4.0,363,1,Mexican;Restaurants;Nightlife;Bars
261,ww_MXl-qDLeYdYTZZ9KWbA,"""Pho Linh""",Brockton Village,"""1156 College Street W""",Toronto,ON,M6H 1B6,43.652368,-79.4340771,4.0,162,1,Vietnamese;Restaurants
268,lBNPDcSvmUbq7W69HvmRTA,"""Pizza Hut""",Etna,"""550 Butler St""",Etna,PA,15223,40.500796,-79.943429,1.5,15,1,Italian;Pizza;Chicken Wings;Restaurants
274,dPxZI9lrKTl5dvFfnb1_Ig,"""Trattoria Italia""",Anthem,"""9905 S Eastern Ave, Ste 140""",Las Vegas,NV,89183,36.0100856,-115.1186563,4.5,210,1,Seafood;Italian;Pizza;Restaurants
293,fUOY7g6JcO0m3iZNfK0O0g,"""Injapan""",Liberty Village,"""124 Atlantic Avenue""",Toronto,ON,M6K 1X9,43.6397312,-79.4212973,3.0,32,1,Restaurants;Japanese;Sushi Bars
309,YgPz8vB7tw1B61qi_NLP9w,"""Kesté""",Plateau-Mont-Royal,"""275 Avenue Fairmount O""",Montréal,QC,H2V 0A1,45.5209077,-73.5974472,4.0,18,1,Italian;Restaurants
322,VGRn5KgYKMkqdIKtBUzQQA,"""Wahlburgers""",Gateway District,"""2105 Ontario St""",Cleveland,OH,44115,41.497812,-81.691629,3.0,100,1,American (Traditional);Burgers;Restaurants
327,WO5uv-M-u5AG24PiRLYnZA,"""La Citronnelle""",Ahuntsic-Cartierville,"""1386 Rue Fleury E""",Montréal,QC,H2C 1R4,45.560843,-73.657388,4.0,7,1,Chinese;Restaurants;Vietnamese;Asian Fusion
330,1P1YZZl9HXSYeSJR6cjf_Q,"""Thai Express""",Thornhill Woods,"""Rutherford Market Place, 9342 Bathurst Street""",Vaughan,ON,L6A 4N9,43.8468427,-79.4585966,3.0,12,1,Restaurants;Thai
332,j37Z4LIXTH9j6KOq9aX8DQ,"""Beer Emporium""",East Liberty,"""302 S Saint Clair St""",Pittsburgh,PA,15206,40.4599557,-79.930726,3.5,169,1,Beer;Wine & Spirits;American (New);Restaurants;Nightlife;Food;Bars;Belgian;Sandwiches;Pubs
374,XjbPr3o-YTsticeavLjTEg,"""Hooters""",Ville-Marie,"""1433 Rue Crescent""",Montréal,QC,H3G 2B2,45.497981,-73.57722,2.0,20,1,Barbeque;Sports Bars;Restaurants;Nightlife;Bars;Chicken Wings
380,inaACfObL1NBNJmBG11iuQ,"""Global Deli""",Grassmarket,"""13 George IV Bridge, Old Town""",Edinburgh,EDH,EH1 1EE,55.9479597,-3.1921432,4.0,13,1,Restaurants;Food;Sandwiches;Coffee & Tea;Delis
394,575BoZY8tDPcfSRcdsUNLw,"""Eat'n Park""",Banksville,"""1250 Banksville Rd""",Pittsburgh,PA,15216,40.4167567,-80.0303278,3.0,42,1,American (New);American (Traditional);Restaurants;Breakfast & Brunch;Diners
395,QAXFmt__jImnIEvhAVZsJA,"""Boston Pizza""",LaSalle,"""6857 Boulevard Newman""",Lasalle,QC,H8N 3E4,45.4486301,-73.6087194,2.0,17,1,Restaurants;Pizza
397,Di5ApLgoQpcv5Aew82fI_A,"""The Rendezvous""",West End,"""10 Queensferry Street""",Edinburgh,EDH,EH2 4PG,55.9505495,-3.2094542,3.5,19,1,Restaurants;Cantonese;Chinese
404,3N5bwNdig7uRddd3kozENA,"""Popeyes Louisiana Kitchen""",Church-Wellesley Village,"""589 Yonge Street""",Toronto,ON,M4Y 1Z4,43.6660486,-79.3848505,2.5,17,1,Chicken Wings;Fast Food;Restaurants
420,OvbLKXkJCg8ZMHX9L5faIA,"""Bread Meats Bread""",West End,"""92 Lothian Road""",Edinburgh,EDH,EH3 9BE,55.9463897672,-3.2058293601,4.0,28,1,Burgers;Restaurants
440,HVd718KlG6VdY5oh5LH7mQ,"""Restaurant Xi'An Lina Tang""",Ville-Marie,"""1051 Boulevard Saint-Laurent""",Montréal,QC,H2X 1P4,45.5082486,-73.5599432,3.0,7,1,Chinese;Restaurants
446,T2jfXhvQPk9wLdt1OVV-Kg,"""Rose Street Brewery""",New Town,"""55-57 Rose Street""",Edinburgh,EDH,EH2 2NH,55.9528352279,-3.1985596159,3.0,24,1,Pubs;Whiskey Bars;Nightlife;Breakfast & Brunch;Restaurants;Bars
471,ugdUuApH3pYXggW5qpbALg,"""Mr. Torta's""",Elvehjem,"""4527 Cottage Grove Rd""",Madison,WI,53716,43.083976745,-89.3033632212,3.5,19,1,Restaurants;Mexican;Latin American
475,DkBer3JjUGfKEsZCLtfgvA,"""Crave Healthy Habits""",Financial District,"""TD Centre Food Hall, 100 Wellington Street W""",Toronto,ON,M5K 1A1,43.6471768,-79.3815764,4.0,11,1,Salad;Restaurants;Vegetarian;Gluten-Free
484,0RrHQNdsMK3jPlK4f9_wWA,"""Presse Café""",Ville-Marie,"""800 St Catherine E""",Montréal,QC,H2L 2E3,45.515484,-73.5586047,2.5,10,1,Sandwiches;Food;Restaurants;Coffee & Tea;Breakfast & Brunch
497,EgGdnaotJpPvxCFyZPJeUw,"""Pizza Hut""",Northwest,"""4945 W. Craig Road""",Las Vegas,NV,89130,36.238059,-115.210341,2.0,13,1,Restaurants;Pizza
522,lrm8hNDtwd5Wd0tVjOgCyw,"""Ithaca Restaurant""",Unionville,"""5308 Hwy 7 E""",Markham,ON,L3P,43.8685158,-79.282552,3.5,55,1,Greek;Restaurants;Mediterranean
535,03bL5yYHb-chhJwyeSAkfQ,"""Student Tasty Biryani""",Ville-Marie,"""1620 Avenue Lincoln""",Montréal,QC,H3H 2T5,45.4958037,-73.5804942,4.0,19,1,Indian;Restaurants;Pakistani
538,AfL8Ds7ex73tfVbq3EFWKg,"""Baja Fresh""",Westside,"""8780 W Charleston Blvd, Ste 100""",Las Vegas,NV,89117,36.1594825,-115.2874508,5.0,6,1,Restaurants;Mexican
539,k-6pef2sjWEyyBqgTAQcRA,"""Coffee Culture""",Maple,"""10037 Keele Street""",Vaughan,ON,L6A 3Y8,43.8557999,-79.512148,3.5,29,1,Breakfast & Brunch;Coffee & Tea;Restaurants;Food
608,FuO6d7IR1ee-3Bfo-gu1HQ,"""Imperial Buffet""",Dixie,"""3120 Dixie Road""",Mississauga,ON,L4Y 2A6,43.6105822,-79.5878496,3.0,58,1,Restaurants;Buffets
621,WMj5Uj04pAqFxLMnJQcQqw,"""Panda Express""",The Strip,"""3355 Las Vegas Blvd S""",Las Vegas,NV,89109,36.1220839,-115.1680316,2.5,61,1,Restaurants;Fast Food;Chinese
669,IfUkm42SB9D0m_ZbkQ711A,"""The Fish Store & Sandwiches""",Little Italy,"""657 College Street""",Toronto,ON,M6G 1B7,43.6549209,-79.4163139,4.0,138,1,Restaurants;Seafood;Sandwiches
672,7U23rwCmVWasFQ0cHRMYVw,"""China 8""",Erin Mills,"""5602 Tenth Line W, Unit 110""",Mississauga,ON,L5M 5S5,43.5589212189,-79.742916216,3.0,14,1,Chinese;Thai;Food;Restaurants;Vietnamese
675,sUMi2q41l4AzOsmJMRY8zQ,"""Del Mar Deli""",Southeast,"""9777 Las Vegas Blvd S""",Las Vegas,NV,89183,36.0115411891,-115.175896473,3.5,119,1,Delis;Sandwiches;Restaurants;Breakfast & Brunch
691,_ewxwEwJM-IYfIYnKpQOZw,"""Mexicali Raspados""",Eastside,"""4865 S Pecos Rd""",Las Vegas,NV,89121,36.1006883,-115.1010833,4.5,47,1,Restaurants;Ice Cream & Frozen Yogurt;Shaved Ice;Hot Dogs;Food
694,sKIAHIGW0viQGFAMGgQ3Rg,"""Sushi Mugen""",Leslieville,"""1105 Queen Street E""",Toronto,ON,M4M 1K7,43.6620334719,-79.335608385,4.5,6,1,Sushi Bars;Japanese;Restaurants
697,nsoSw8B3teY2FGAEPfiVfA,"""Choi's Kitchen""",Etobicoke,"""3369 Bloor Street W""",Toronto,ON,M8X 1G2,43.6445955,-79.5226903,4.0,6,1,Restaurants;Chicken Wings;Chicken Shop
700,qLCrPakPU9uArigtDu-KiQ,"""Uncle Mikey's""",Brockton Village,"""1597 Dundas Street W""",Toronto,ON,M6K 1T9,43.6496731,-79.4348818,5.0,11,1,Korean;Canadian (New);Restaurants;Tapas Bars
725,t2GtB-aiOzrNnuGxZV190g,"""Diamond Pizza""",East York,"""510 Main Street""",Toronto,ON,M4C 4Y2,43.6947165,-79.3048792,2.0,13,1,Pizza;Restaurants
729,J9f-9Prw2YVM-fiZqv2fmQ,"""Original Hot Dog Shop""",Oakland,"""3901 Forbes Ave""",Pittsburgh,PA,15213,40.442147,-79.956513,3.5,210,1,Hot Dogs;Restaurants;Pizza;Burgers
776,wtazPNyIbsRMHmrpEYbqZA,"""Golden Krust Caribbean Bakery & Grill""",University City,"""440 E McCullough Dr, Ste 126""",Charlotte,NC,28262,35.302143,-80.7477477,3.0,38,1,Food;Restaurants;Caribbean;Bakeries
778,v0byOL8VL6v6muGa1anxFA,"""The Hummus Factory""",Westside,"""7875 W Sahara Ave, Ste 101""",Las Vegas,NV,89117,36.1432041,-115.262866,4.5,214,1,Event Planning & Services;Caterers;Burgers;Greek;Restaurants;Middle Eastern;Mediterranean
789,aNe8ofTYrealxqv7VtFTuw,"""Sierra Gold""",Spring Valley,"""6515 S Jones Blvd""",Las Vegas,NV,89118,36.0703249,-115.2249525,3.5,215,1,American (New);Restaurants;Pubs;Nightlife;Sports Bars;Bars;Food;Pizza;Breweries
792,lHyTZFd8XXtvPwo-_qeTXA,"""Jersey Mike's Subs""",Anthem,"""10520 South Eastern""",Henderson,NV,89052,36.0005078,-115.105592,3.5,33,1,Fast Food;Delis;Restaurants;Sandwiches
801,PgJgpW4TKQ8IoALH2Yq-zA,"""Bayside Buffet at Mandalay Bay""",The Strip,"""3950 S Las Vegas Blvd""",Las Vegas,NV,89109,36.0912192601,-115.1758039,3.0,1033,1,Arts & Entertainment;Restaurants;Buffets;American (Traditional);Casinos
820,kyphxFtMIC6w7ktg-fwxWA,"""Panera Bread""",University,"""11490 Euclid Ave""",Cleveland,OH,44106,41.509763,-81.603852,2.0,41,1,Food;Salad;Sandwiches;Restaurants;Breakfast & Brunch;Bagels;Soup
826,5vgieFiCubi43G6ciiFhNQ,"""CC Lounge & Whisky Bar""",St. Lawrence,"""45 Front Street E""",Toronto,ON,M5E 1B3,43.6479658,-79.3745153,4.5,53,1,Restaurants;Whiskey Bars;Nightlife;Bars;American (Traditional);Cocktail Bars;Dance Clubs;Lounges
841,9L8UgjIvLfwylrFacB2HuA,"""Café Holts""",Ville-Marie,"""1300 Sherbrooke Street West""",Montréal,QC,H3G 1H9,45.499329,-73.578529,4.0,15,1,Restaurants;Canadian (New);American (New);Cafes;French
853,x1IPOlH_O5D3qZdZo6YyEA,"""Florentia""",Mount Pleasant and Davisville,"""579 Mount Pleasant Road""",Toronto,ON,M4S 2M5,43.7035596,-79.3879764,3.5,17,1,Restaurants;Italian
857,hJX8WoV-KbFVHojZ6i83Cg,"""Quiznos""",Downtown,"""901 S Rancho Dr""",Las Vegas,NV,89106,36.1604805,-115.17233,3.5,17,1,Sandwiches;Fast Food;Restaurants;Delis
858,om4t1hDJRQqTRS9VT7ADhA,"""Q Tavern""",Uptown,"""201 S McDowell St""",Charlotte,NC,28204,35.2189223729,-80.8361534402,3.0,27,1,Nightlife;Restaurants;Southern;Gastropubs;Bars;Pubs
862,gwYt_q3Ob7aQJIefIBsZiQ,"""Raising Cane's""",Spring Valley,"""7135 S Rainbow Blvd""",Las Vegas,NV,89118,36.058716,-115.2433571,4.0,264,1,Fast Food;Chicken Shop;American (Traditional);Chicken Wings;Restaurants
872,1W_gZM_uuEvJqapbIl6z9Q,"""El Charro""",Cabbagetown,"""582 Parliament Street""",Toronto,ON,M4X 1P8,43.6677846,-79.3697286,4.5,31,1,Restaurants;Food Stands;Street Vendors;Food;Mexican
877,xfbjRpE3yhRQ9Zw-D_mBgQ,"""Nunu Ethiopian Fusion""",Beaconsfield Village,"""1178 Queen Street W""",Toronto,ON,M6J 2J5,43.642969,-79.4257048,4.0,70,1,Restaurants;Ethiopian
887,rwKSKNRKXVERaltnjVltEA,"""Arcade Pizza""",North Broadway,"""5319 Broadway Ave""",Cleveland,OH,44127,41.4688917,-81.6527921,3.5,18,1,Pizza;Fast Food;Restaurants
896,lxZoKGTQvsTFrahsYrPFKQ,"""Quik Chik""",Mississauga Valley,"""3355 Hurontario Street, Unit 1-2""",Mississauga,ON,L5A 4E7,43.587621,-79.626502,3.5,19,1,Restaurants;Chicken Wings
913,bAdwf-n52f46-ZjlfJ1Hwg,"""Roberto's Taco Shop""",Centennial,"""7251 W Azure Dr""",Las Vegas,NV,89130,36.2730147,-115.2518622,2.5,26,1,Fast Food;Mexican;Restaurants
916,ijg7qQCYnhUWBd5JUxbfvA,"""Roxy's Diner""",The Strip,"""2000 Las Vegas Blvd S""",Las Vegas,NV,89104,36.1477095179,-115.155205876,3.0,357,1,Restaurants;Burgers;Breakfast & Brunch;Diners;Food;Desserts
931,2WiuLnyR8UWXjYQKgKBjkg,"""Narula's""",Hanlan,"""6435 Dixie Road, Suite 10""",Mississauga,ON,L5T,43.66462,-79.65855,3.5,15,1,Indian;Barbeque;Fast Food;Restaurants
944,vZbcZDWqIvHmUtS3Pky1tA,"""Edo Japon""",Ville-Marie,"""705 Rue Sainte-Catherine O""",Montréal,QC,H3B 4G5,45.5027545,-73.5714715,4.5,7,1,Restaurants
977,PYg9hhTfuE1HMwzXCAl1Hg,"""Tiffany Thaistyle""",Rathaus,"""Schulstr. 10 A""",Stuttgart,BW,70173,48.77589,9.17722,3.5,28,1,Restaurants;Thai
979,u-SvRRAfYgpbXZRfQgcTzA,"""Imadake""",Ville-Marie,"""4006 Rue Sainte-Catherine O""",Montréal,QC,H3Z 1P2,45.488795,-73.584954,4.0,231,1,Nightlife;Pubs;French;Bars;Japanese;Restaurants
992,HIvLwkEYuGRtI17H2x7RuQ,"""Bold Food & Drink""",East Bank,"""1121 W 10th St""",Cleveland,OH,44113,41.5006258,-81.7043299,4.0,114,1,American (New);Nightlife;Restaurants;Bars
996,irQ0cNh04sg90B1NN-ekDA,"""Diva""",Edgeley,"""167 Applewood Crescent, Suite 1""",Vaughan,ON,L4K 4K7,43.8079673,-79.5341753,4.0,13,1,Breakfast & Brunch;Burgers;Restaurants;Salad;Sandwiches
998,RjZP38S11LqnPcoMxHESug,"""Burro Burrito""",Entertainment District,"""388 Richmond Street W""",Toronto,ON,M5V 3P1,43.6481029,-79.394857,4.0,38,1,Restaurants;Mexican
1024,ZPZYNq9fNu2GyeCSz7U-fg,"""Five Star Tavern""",Sunrise,"""4220 E Charleston Blvd""",Las Vegas,NV,89104,36.1590151,-115.0850773,3.0,6,1,Bars;Casinos;American (New);Arts & Entertainment;Restaurants;Nightlife
1029,S68q2ejdupCsFOPQ-oRDmQ,"""Taza Xpress""",Erin Mills,"""2911 Eglinton Avenue W, Unit D3""",Mississauga,ON,L5M 6J3,43.551131,-79.715957,4.0,22,1,Middle Eastern;Egyptian;Sandwiches;Restaurants;Salad
1034,hPTx2Y5e4Czbr21XcbDN8g,"""Mei Nung Beef Noodle House""",Brown's Corners,"""3229 Highway 7 E, Unit 15""",Markham,ON,L3R 3P3,43.851504,-79.351891,4.0,196,1,Restaurants;Chinese;Taiwanese
1039,nA4jm1nIdSXZTKd5TYH79A,"""The Works Gourmet Burger Bistro""",Swansea,"""2245 Bloor Street W""",Toronto,ON,M6S 1N6,43.6507359,-79.4774407,3.5,58,1,Burgers;Restaurants
1040,57nuqvG7IYS58-WAalEH3w,"""Sushi Shop""",Ville-Marie,"""915 De Maisonneuve Boul W""",Montréal,QC,H3A 0A5,45.5024719,-73.5731847,2.0,7,1,Restaurants;Sushi Bars
1041,6wZdg1ursk12C3CTnF0gcg,"""Ruby's Mediterranean Cuisine""",Scarborough,"""1 Eglinton Square""",Scarborough,ON,M1L 2K1,43.7240525,-79.3011688,4.5,21,1,Middle Eastern;Restaurants
1048,UqcK-YuHPzcWQtNjmhTb7g,"""The Other Place""",Cannonmills,"""2-4 Broughton Road""",Edinburgh,EDH,EH7 4EB,55.9625207664,-3.1963183378,3.5,22,1,Restaurants;Brasseries;Pubs;Nightlife;Bars;Gastropubs;Scottish
1058,XBDe0pFAw1B32tpAQN5t2g,"""holts café""",Yorkville,"""50 Bloor Street West, Fl 2""",Toronto,ON,M4W 1A1,43.6703401,-79.3882622,3.5,38,1,Cafes;Breakfast & Brunch;Restaurants
1064,nF5TXLMmC6IJgQxE9CEZPw,"""Sun Penang""",Squirrel Hill,"""5829 Forbes Ave""",Pittsburgh,PA,15217,40.4382561,-79.9218667,3.0,148,1,Malaysian;Restaurants
1093,AYe8rS3qBPuLHSwNOZSbcA,"""Sushi Loca""",South Summerlin,"""10965 Lavender Hill Dr""",Las Vegas,NV,89135,36.1450494098,-115.332824471,3.0,229,1,Food;Sushi Bars;Restaurants
1103,5_MrPFw9E0cMJ1Q0DJFZOQ,"""Tilted Kilt Pub & Eatery""",The Strip,"""3545 Las Vegas Blvd, Unit L-26""",Las Vegas,NV,89109,36.1173843209,-115.170322225,3.0,288,1,Pubs;Sports Bars;Bars;Restaurants;Nightlife;American (Traditional)
1104,KPsu_1Q9XYRKWs_ZBTtlTg,"""Sky Lounge""",The Strip,"""3745 S Las Vegas Blvd""",Las Vegas,NV,89109,36.1065949,-115.1709543,2.5,6,1,Bars;Pizza;Lounges;Restaurants;Nightlife
1109,tSbs8i_9Hlaommupjgn63Q,"""Panda Express""",Sunrise,"""4416 E Bonanza Blvd""",Las Vegas,NV,89110,36.1739844,-115.0797206,3.0,14,1,Chinese;Fast Food;Restaurants
1116,GyJv9dkd5nmpgSSJgDtsnQ,"""KFC""",Etobicoke,"""156 The Queensway""",Etobicoke,ON,M8Y 1J2,43.6302378,-79.4847082,2.0,6,1,Restaurants;Chicken Wings;Fast Food
1128,bu4hyEunQWhCrNDwpb1Nxw,"""McCarold's""",Côte-des-Neiges,"""5400 Chemin de la Côte-des-Neiges""",Montréal,QC,H3T 1Y5,45.4967856,-73.6236149,3.5,50,1,Bars;Nightlife;Burgers;Irish;Beer;Wine & Spirits;Pubs;Food;Irish Pub;Restaurants
1131,nEmEaEtnkFO7VW25e2ZDsQ,"""Downtown Deli""",Downtown Core,"""4 Temperance Street""",Toronto,ON,M5H 1Y4,43.6510992,-79.3791616,3.5,9,1,Burgers;Restaurants;Delis
1137,E1WG9lbypCMKlKhAjzWRsQ,"""520 BBQ House""",Milliken,"""3290 Midland Avenue, Unit 1""",Toronto,ON,M1V 3Z9,43.8064588,-79.2894695,3.5,6,1,Barbeque;Restaurants;Chinese
1146,Fbycyr3KEjDQ4wO9AStmvQ,"""Cafe Sam""",Bloomfield,"""5242 Baum Blvd""",Pittsburgh,PA,15224,40.456227,-79.940241,4.0,70,1,American (New);Restaurants
1159,LCb2moBNkcBto_32rmZJ5A,"""Echo Sushi""",Mount Pleasant and Davisville,"""2036 Yonge Street""",Toronto,ON,M4S 1Z9,43.7012899,-79.3972257,4.0,147,1,Buffets;Japanese;Sushi Bars;Restaurants
1188,IDW4QFw-fN_wk81G9OV-Mg,"""Nothing But Noodles""",Elizabeth,"""1605 Elizabeth Ave""",Charlotte,NC,28204,35.213744,-80.8262381,4.0,75,1,Asian Fusion;Chinese;American (Traditional);Noodles;Italian;Fast Food;Salad;Food;Gluten-Free;Desserts;Restaurants
1195,j4jsgp-e315s11ehJfRzAA,"""The Carlton""",Downtown,"""500 Grant St""",Pittsburgh,PA,15219,40.4396782,-79.9959316,3.5,82,1,Restaurants;Steakhouses;Seafood;Diners;American (Traditional)
1201,OFw59czUoeeosFMKfRawmg,"""Gordon Biersch Brewery Restaurant""",Eastside,"""3987 Paradise Rd""",Las Vegas,NV,89169,36.1170027,-115.1552488,3.5,352,1,Nightlife;Breweries;Restaurants;Food;American (New);Bars
1207,4kDLEb1OgE7IrO54lCkn3A,"""Cocina Economica""",Corktown,"""141 Berkeley Street""",Toronto,ON,M5A 2X1,43.6549273753,-79.3654748869,4.0,117,1,Mexican;Restaurants;Latin American
1211,SucJwTrxbA0ko8V0HddGzg,"""Thai Chef Cuisine""",Roncesvalles,"""233 Roncesvalles Avenue""",Toronto,ON,M6R 2L6,43.6461824,-79.4488725,3.5,31,1,Restaurants;Thai
1218,sp0kp2ZWmO0a6CcK-SGd-Q,"""Mon Nan""",Ville-Marie,"""43 Rue De La Gauchetiere E""",Montréal,QC,H2X 1P4,45.5085805,-73.559655,3.5,34,1,Chinese;Restaurants
1239,7KkgMcbVaetryW1wwpzvvA,"""Cafe Rio""",Northwest,"""5765 Centennial Center Blvd""",Las Vegas,NV,89149,36.26483,-115.257743,3.5,153,1,Restaurants;Mexican
1240,kbP2OqaNJMK0L3J_FU5nlg,"""George Street Bar and Grill""",New Town,"""130 George Street""",Edinburgh,EDH,EH2 4JZ,55.9518303838,-3.2061896148,3.5,7,1,Vegetarian;Restaurants;British;Steakhouses
1245,ajMgo23H5Qcn7Ma-xtiCqQ,"""High Park Spicy House""",The Junction,"""3020 Dundas St W""",Toronto,ON,M6P 1Z3,43.6657071,-79.4700637,3.0,14,1,Restaurants;Indian
1278,_FgODqQclua0klHLsFBmMg,"""Deep Sea Carry-Out""",New Town,"""2 Antigua Street""",Edinburgh,EDH,EH1 3NH,55.9577964,-3.1853442,4.0,13,1,Fish & Chips;Restaurants
1290,Ffwu9VQ2GAfd-BdNmE0qgw,"""Le Petit Bistro""",Ville-Marie,"""1550 Rue Fullum""",Montréal,QC,H2K 3M4,45.52778,-73.549767,4.5,14,1,Restaurants;French
1296,klriPUN0dp48ytz_lZoQEg,"""Banh Mi Queen""",Plateau-Mont-Royal,"""3723 Boulevard Saint-Laurent""",Montréal,QC,H2X 2V7,45.5150968,-73.5748298,3.0,7,1,Restaurants;Vietnamese
1300,2zd-1R3CdnaMDXTAEVa2Qg,"""Bom Apetite Churrasqueira""",Etobicoke,"""1176 The Queensway""",Toronto,ON,M8Z 1R5,43.6223284,-79.5218184,2.5,9,1,Portuguese;French;Restaurants
1313,BQkfjQlvnaqHKSZuBAQflQ,"""Bay Of Bengal""",Old Town,"""164 High Street""",Edinburgh,EDH,EH1 1QS,55.9497598,-3.1891067,2.5,13,1,Pakistani;Vegetarian;Restaurants;Indian
1323,OlSpcJY_nXqWbdwdg4SNvA,"""Global Imperial Cuisine""",Scarborough,"""23 Glen Watford Drive, Suite 9""",Toronto,ON,M1S 2B7,43.7868737054,-79.2739297049,3.0,28,1,Asian Fusion;Chinese;Restaurants
1349,S9-8BjiC0G_58fIeezypPQ,"""Freshii""",Downtown Core,"""23 College Street""",Toronto,ON,M5G 2B3,43.6609874,-79.383889,3.0,34,1,Ice Cream & Frozen Yogurt;Breakfast & Brunch;Juice Bars & Smoothies;Restaurants;Food;Vegetarian
1353,_csgqOCUWhaS4KAwm9Rcag,"""Chick-fil-A""",Steele Creek,"""14111 Rivergate Pkwy""",Charlotte,NC,28273,35.103883,-80.984753,2.5,46,1,Restaurants;Fast Food;Caterers;Event Planning & Services
1364,OohsWZ3A0bo8y6N6vi6ePA,"""Anthony's Pizza""",Carrick,"""1820 Brownsville Rd""",Pittsburgh,PA,15210,40.396531,-79.987919,3.0,13,1,Pizza;Restaurants
1369,fQwB9Z98YEhkJit7c3z51A,"""The Carbon Bar""",Corktown,"""99 Queen Street E""",Toronto,ON,M5C 1S2,43.6531872634,-79.3747868766,4.0,268,1,Restaurants;Cocktail Bars;Nightlife;Barbeque;Bars;Southern;American (Traditional);Canadian (New)
1378,h5ihGbkb8127_lk9iNnV4Q,"""Arby's""",Myers Park,"""311 S Kings Dr""",Charlotte,NC,28204,35.2126019,-80.833598,3.5,11,1,Fast Food;Restaurants;Sandwiches;Burgers
1381,bEVWHtBRYVwqaaNF4mWNYg,"""Coquine Restaurant""",Mount Pleasant and Davisville,"""2075 Yonge Street""",Toronto,ON,M4S 2A4,43.7025524249,-79.3972819847,4.0,122,1,French;Restaurants
1382,bqW0f0RigwpYyz1lbxhHlw,"""Penn Brewery""",Troy Hill,"""800 Vinial St""",Pittsburgh,PA,15212,40.4571416643,-79.9915010041,3.5,201,1,German;Breweries;Restaurants;Food;Event Planning & Services;Venues & Event Spaces
1395,GisIy4El3OAxJwnkovgv_A,"""Hot Dog on a Stick""",Westside,"""4300 Meadows Ln""",Las Vegas,NV,89107,36.1725319,-115.197258,3.0,20,1,Hot Dogs;Restaurants
1400,GdnLAgRXt43eISMtJEOZRg,"""Sushi Express""",Capitol,"""610 University Ave""",Madison,WI,53715,43.0733361,-89.396349,3.5,76,1,Japanese;Restaurants;Sushi Bars
1418,CBOsWj63K1_O1m2Ounz7bQ,"""Ucan""",Ville-Marie,"""1832 Saint-Catherine Ouest""",Montréal,QC,H3H 1M1,45.4932379514,-73.579730317,2.0,21,1,Breakfast & Brunch;Cantonese;Chinese;Asian Fusion;Restaurants
1426,_wpUUDnJwrn7eSYAjnv7WA,"""Brothers Lounge""",Edgewater,"""11609 Detroit Ave""",Cleveland,OH,44102,41.4831317,-81.7678484,4.0,60,1,Lounges;Jazz & Blues;Bars;Arts & Entertainment;Music Venues;Restaurants;Nightlife
1437,pyqnGlIfP9Zw8LLxBjyAiA,"""Nobu""",The Strip,"""3570 Las Vegas Blvd S""",Las Vegas,NV,89109,36.1167433322,-115.175368225,4.0,840,1,Sushi Bars;Japanese;Seafood;Restaurants
1441,Ub-RrbQWAV_JuVyYixynfg,"""Villa Fresh Italian Kitchen""",Riverside,"""5300 Riverside Dr""",Cleveland,OH,44135,41.4106123,-81.838659,2.5,11,1,Pizza;Restaurants;Italian
1465,tro-hrljuY1cUAVFYauTlQ,"""In-N-Out Burger""",University,"""4705 S Maryland Pkwy""",Las Vegas,NV,89119,36.1041636,-115.1375999,4.5,275,1,Burgers;Restaurants;Fast Food
1480,xJ_L2sJN1zk3VDpZELrV_Q,"""Eggspectation""",Ville-Marie,"""12 Rue Notre-Dame Est""",Montréal,QC,H2Y 3P7,45.5065422,-73.5553826,4.0,83,1,Bars;Breakfast & Brunch;Restaurants;Nightlife;Cafes
1481,_QvGAqMmrUIlxpby2Ul5Dg,"""Dona Maria Tamales Restaurant""",Northwest,"""3205 N Tenaya Way""",Las Vegas,NV,89129,36.2191460556,-115.251756703,3.5,242,1,Food;Desserts;Mexican;Seafood;Restaurants
1510,B7wipW2uZRj7syuQiRTH4A,"""Pickle Jar""",South Campus,"""E Washington Pinckney""",Madison,WI,53714,43.0709241847,-89.4064730428,4.0,11,1,Barbeque;Restaurants;Food Trucks;Local Flavor;Food
1518,zXa-mSXf9rQoTHySNCdK1w,"""tobi´s""",Neue Vorstadt,"""Bolzstr. 7""",Stuttgart,BW,70173,48.7799060471,9.1771578135,3.5,69,1,Curry Sausage;Swabian;German;Restaurants;Fast Food
1520,A5Jeg55tDoyUTUonkVOpdg,"""Pagaille Café""",Plateau-Mont-Royal,"""101 Rue Villeneuve O""",Montréal,QC,H2T 2R6,45.5202801,-73.5908202,4.5,18,1,Sandwiches;Cafes;Food;Juice Bars & Smoothies;Restaurants
1552,LTEVTg3qCGnlGaExZMAejw,"""No Bull Burgers""",The Beach,"""1019 Kingston Road""",Toronto,ON,M4E 1T3,43.6805751,-79.2850701,4.0,62,1,Restaurants;Burgers
1562,lFPNibSaYC3Vq4PCGaps_w,"""Eggsmart""",Langstaff,"""8051 Yonge St""",Thornhill,ON,L3T 2C5,43.8224204,-79.4258921,3.5,19,1,Restaurants;Breakfast & Brunch
1570,JKTMgelIQ-VHn7SL5nyiWA,"""Buddha Thai Bistro""",Southeast,"""9400 S Eastern Ave, Ste 106B""",Las Vegas,NV,89123,36.0182263,-115.1179256,4.5,86,1,Chinese;Asian Fusion;Thai;Restaurants
1586,gtfLQysuCBEAQk3wwWxwTg,"""Viva Napoli""",Mount Pleasant and Davisville,"""679 Mt Pleasant Road""",Toronto,ON,M4S,43.7057591,-79.3889253,3.5,67,1,Italian;Pizza;Restaurants
1588,KeQ1cK564cL5C_hBTFrqnA,"""Desi Bar & Grill""",Mississauga Valley,"""925 Rathburn Road E""",Mississauga,ON,L4W 4C3,43.6160832,-79.6175759,4.0,62,1,Bars;Pubs;Pakistani;Event Planning & Services;DJs;Canadian (New);Halal;Indian;Delis;Restaurants;Chinese;Nightlife;Seafood;Sports Bars
1625,qCTuGaciae73u7C57s2_0Q,"""Poonam Delite""",The Danforth,"""2658 Danforth Avenue""",Toronto,ON,M4C 1L4,43.6888991,-79.2995013,3.5,19,1,Indian;Restaurants
1652,4Pb7SlTK89uSdqOwMNM35A,"""Tequila Taqueria""",The Strip,"""3645 Las Vegas Blvd S""",Las Vegas,NV,89109,36.11386,-115.168798,3.0,187,1,Burgers;Bars;Restaurants;Mexican;Nightlife;Tex-Mex;Cocktail Bars;Beer Bar
1654,3vkP6t_kKN3JT8MMUaBVEA,"""Original Pancake House""",Myers Park,"""915 Charlottetowne Ave""",Charlotte,NC,28204,35.2135311,-80.8324573,4.0,226,1,Breakfast & Brunch;Kosher;Restaurants;American (Traditional);Creperies
1662,sQyX5VeAMPrxD9D3XH9HhQ,"""Miyamoto- Epicerie Japonaise""",Notre-Dame-de-Grâce,"""382 Avenue Victoria""",Westmount,QC,H3Z 2N4,45.478421,-73.602753,4.5,9,1,Food;Sushi Bars;Imported Food;Specialty Food;Grocery;Ethnic Food;Restaurants
1674,fi6s29AbDqLjoQ1LSe5lrg,"""Michael's Back Door Restaurant""",Birchwood,"""1715 Lakeshore Road W""",Mississauga,ON,L5J 1J4,43.518092,-79.6226041,3.5,34,1,Italian;Restaurants
1677,J121PGT4oi5AqVbtMoEfVw,"""La Parrilla""",Eastside,"""4161 S Eastern Ave""",Las Vegas,NV,89119,36.1130431,-115.1194493,3.5,6,1,Restaurants;Mexican
1682,n2WtavwwYZyOr0ImiImquQ,"""Jack in the Box""",Biddleville,"""220 N Hoskins Rd""",Charlotte,NC,28216,35.2660805,-80.882307,2.5,11,1,Fast Food;Restaurants
1692,ScT2XD3TvieGPbTjCNplHg,"""Lili & Oli""",Sud-Ouest,"""2713 Rue Notre Dame O""",Montréal,QC,H3J 1N9,45.4818491,-73.5771893,4.5,15,1,Restaurants;Cafes
1709,LpGCzgAKNSpzDNEUMVVtZA,"""Grimaldi's Pizzeria""",Spring Valley,"""7155 S Rainbow Blvd, Ste 125""",Las Vegas,NV,89118,36.0583338569,-115.243319197,4.0,459,1,Pizza;Restaurants
1714,Ur4eYOFq4qVLHkZJNmcqfQ,"""Prosperity Social Club""",Tremont,"""1109 Starkweather Ave""",Cleveland,OH,44113,41.477068,-81.689789,4.0,182,1,Restaurants;Pubs;Bars;Breakfast & Brunch;Nightlife
1721,NRQSeBoEyFpiGJDf3ebtyA,"""Basha - Des Sources""",Dollard-des-Ormeaux,"""3339 Boulevard des Sources""",Dollard-des-Ormeaux,QC,H9B 1Z8,45.4840219594,-73.7955109456,3.0,6,1,Indian;Lebanese;Middle Eastern;Pakistani;Restaurants
1729,iFCz-xI7CV98fcaB4Chh3g,"""The Black Sheep""",Spring Valley,"""8680 W Warm Springs Rd""",Las Vegas,NV,89148,36.0560801,-115.2808739,4.5,178,1,Cocktail Bars;Nightlife;Restaurants;Wine Bars;American (New);Bars
1737,cf7sazfGpGbpXbVoCgxlmQ,"""Swiss Chalet Rotisserie & Grill""",Dixie,"""1455 Dundas St East""",Mississauga,ON,L4X 1L3,43.6109888,-79.5827547,2.5,8,1,American (Traditional);Comfort Food;Barbeque;Restaurants
1741,udet1D1MNcKsR6n7fBpAyg,"""Orchard Family Restaurant""",Cooksville,"""2550 Hurontario Street""",Mississauga,ON,L5B 1N5,43.5784268,-79.6157482,3.5,44,1,Breakfast & Brunch;Restaurants
1775,EX60HoNJRs3ALidmEGDgWA,"""Jimmy John's""",University City,"""350 E McCullough Dr""",Charlotte,NC,28263,35.3019365,-80.7491376,4.0,33,1,Delis;Sandwiches;Restaurants
1782,tAayweHA0dCq3J0W3y6psg,"""Divan Restaurant""",Relenberg,"""Hölderlinstr. 35 A""",Stuttgart,BW,70174,48.7845892335,9.1609529557,4.0,33,1,Turkish;Restaurants
1800,PPubJ0Nre_VIody7aj_ALg,"""Harvest Noon""",University of Toronto,"""16 Bancroft Avenue, 2nd Floor""",Toronto,ON,M5S 1C1,43.6607028,-79.4001796,4.0,9,1,Restaurants;Vegan
1801,-RM_sAnISkMlo7q4auKJ4w,"""Mucho Burrito""",Lisgar,"""2963 Argentia Rd, Unit 3""",Mississauga,ON,L5N 0A2,43.5979387,-79.7840856,3.0,6,1,Restaurants;Mexican
1820,82YGtjc5KKikNiqBZ33qzw,"""Kyara Japanese Tapas""",Spring Valley,"""6555 S Jones Blvd, Ste 120""",Las Vegas,NV,89118,36.0698514,-115.2249867,4.0,428,1,Food;Restaurants;Japanese;Tapas Bars;Desserts
1821,zAhv5Pg3vUB_kzdCj0KtDg,"""The Chicken Shack""",Spring Valley,"""4950 S. Rainbow Blvd, Ste 130""",Las Vegas,NV,89118,36.0985966084,-115.242525861,3.5,33,1,Restaurants;Fast Food;Chicken Wings;Chicken Shop
1832,DHUAQ4pzH9KKzGZDm1jZLg,"""Krispy Kreme Doughnuts""",Chinatown,"""7015 W Spring Mountain Rd""",Las Vegas,NV,89103,36.1252910295,-115.245750385,3.0,133,1,Donuts;Cafes;Restaurants;Coffee & Tea;Food
1849,BZm3QkpLhO2TBNHKd0DbBQ,"""Gabby's Bar and Grill""",The Annex,"""192 Bloor St. W.""",Toronto,ON,M5S 1T8,43.6686913,-79.395277,2.5,64,1,Restaurants;Bars;American (Traditional);Beer;Wine & Spirits;Nightlife;Seafood;Food;Canadian (New)
1858,DvXpWBz5_-hZQuvu-RnSwQ,"""The Food Shop""",Kensington Market,"""209 Augusta Avenue""",Toronto,ON,M5T 2L4,43.6540622,-79.4014786,3.5,9,1,Specialty Food;Food;Italian;Restaurants
1869,luf0E5FPY-hv-uceL8QtBA,"""Fat Bar""",The Strip,"""3763 Las Vegas Blvd S""",Las Vegas,NV,89109,36.1052677,-115.1724964,4.0,23,1,American (New);Sports Bars;American (Traditional);Nightlife;Bars;Restaurants
1888,k9AaulyfonmUlkmI3uMiQQ,"""Capitol Trattoria Pizzeria""",Little Italy,"""597 College Street""",Toronto,ON,M6G 1B5,43.6551928,-79.4139538,2.5,25,1,Restaurants;Italian;Event Planning & Services;Pizza;Caterers
1890,ihW5mCeFuzouTzIIduNEFQ,"""El Chalateco""",Rosemont-La Petite-Patrie,"""520 Rue Beaubien Est""",Montréal,QC,H2S 1S5,45.5349826,-73.6039283,4.0,16,1,Salvadoran;Restaurants;Latin American
1893,Rv1IiQaIIDunqzS8dSvHCw,"""Plumeria Thai Cafe""",Northwest,"""6710 W Cheyenne Ave""",Las Vegas,NV,89108,36.2192233223,-115.242703788,4.5,218,1,Asian Fusion;Restaurants;Thai;Hawaiian
1899,63iOXcDVSr8Jm0C8mjzo6g,"""McDonald's""",Greentree,"""1 Poplar St""",Pittsburgh,PA,15205,40.4273917,-80.0533614,1.5,6,1,Restaurants;Burgers;Fast Food;Hot Dogs
1964,8W8QhnJPmMV8W_8BGoAF5Q,"""Mcdonald's""",Ville-Marie,"""150 Rue Sainte-Catherine Ouest, Suite 163 et 214""",Montréal,QC,H2X 3Y2,45.5081728362,-73.5651843622,1.5,6,1,Fast Food;Burgers;Coffee & Tea;Restaurants;Food
1965,SGIngUI_qmRBDM0_3b55jg,"""Burger Shoppe""",Riverdale,"""688 Queen Street E""",Toronto,ON,M4M 1G9,43.658803,-79.3506848,3.0,48,1,Burgers;Restaurants;American (Traditional)
1967,gPzDw2Ms6JZRZhA2tyxItw,"""Burger King""",Eastside,"""3355 S Maryland Pkwy""",Las Vegas,NV,89169,36.1281733,-115.1374956,2.5,11,1,Fast Food;Burgers;Restaurants
1970,yd1M2wrsv3rdIpVcOrvUsg,"""Grill Tasquaria""",Rosemont-La Petite-Patrie,"""2490 Rue Bélanger""",Montréal,QC,H2G 1E6,45.5519260926,-73.5985510424,2.5,9,1,Restaurants;Portuguese
1988,MXpCVzm1V5OH05KO6n7ntA,"""The Corndog Company LV""",Centennial,"""5720 Centennial Center Blvd""",Las Vegas,NV,89149,36.2657011,-115.2599646,5.0,7,1,Food Trucks;Restaurants;Hot Dogs;Food;Street Vendors
1992,ObcMSGc1uotvpnwydoStIg,"""Earl's Grocery""",Elizabeth,"""1609 Elizabeth Ave""",Charlotte,NC,28204,35.213641,-80.826168,4.5,152,1,Caterers;Restaurants;Grocery;Event Planning & Services;Beer;Wine & Spirits;Food;Specialty Food;Food Trucks;Convenience Stores;Breakfast & Brunch;Sandwiches
1999,qtZ50TWkfNS2UtLLuD1m8Q,"""Freddy's Frozen Custard & Steakburgers""",Westside,"""4675 W Charleston Blvd""",Las Vegas,NV,89102,36.1586242,-115.2047571,4.5,113,1,Hot Dogs;Burgers;Fast Food;Ice Cream & Frozen Yogurt;Restaurants;Food
2018,c78Pat78fVUBFPXYeVvbaQ,"""Odd Seoul""",Ossington Strip,"""90 Ossington Avenue""",Toronto,ON,M6J 2Y7,43.64619,-79.419686,4.0,223,1,Nightlife;Asian Fusion;Korean;Bars;Dive Bars;Restaurants
2024,TXuhhudKvAb3JIYD_wELhg,"""La Garrigue""",Royal Mile,"""31 Jeffrey Street""",Edinburgh,EDH,EH1 1DH,55.9511950424,-3.1854110847,4.0,26,1,French;Restaurants;Wine Bars;Nightlife;Bars
2036,V1EdIokE0YYN__dNYfXRdA,"""Pokeman""",Chinatown,"""3735 Spring Mountain Rd, Ste 206""",Las Vegas,NV,89102,36.12613,-115.1891408,4.0,171,1,Hawaiian;Food;Japanese;Restaurants;Sushi Bars;Poke
2038,Nfovc-aKljzls-yDYfU2LQ,"""Sushi Q""",Côte-des-Neiges,"""2787 Avenue Van Horne""",Montreal,QC,H3S 1P6,45.509057,-73.625349,4.5,8,1,Sushi Bars;Restaurants
2066,e_ILiIs2pVpskfeL-zFtTw,"""Leña Restaurante""",Downtown Core,"""176 Yonge Street""",Toronto,ON,M5C 2L7,43.6517906,-79.3801688,3.0,124,1,Cocktail Bars;Nightlife;Spanish;Restaurants;Bars;Latin American
2073,CPcy22Hd2F7z0EKG66FMRA,"""The Old House""",Scarborough,"""3 Glen Watford Drive""",Toronto,ON,M1S 2B7,43.786989,-79.276122,3.5,24,1,Chinese;Restaurants;Local Services
2079,4ritTGFnNxmKnKm-UX3kPQ,"""Punjabi Dhaba""",Old Malton Village,"""2855 Derry Road E""",Mississauga,ON,L4T 1A6,43.7022348,-79.6445857,4.0,26,1,Restaurants;Ethnic Food;Indian;Food Trucks;Specialty Food;Food
2082,vuqHcBCbxH36hCFsZ1W-0Q,"""Mulligan's Pub""",Southeast,"""6471 Boulder Hwy""",Las Vegas,NV,89122,36.084130145,-115.031260665,3.5,47,1,Nightlife;Irish;Bars;Restaurants;Irish Pub;Pubs
2089,MsgfS1iJMpxVIUfO-S4fcA,"""Atti Restaurant""",Ville-Marie,"""2077 Rue University""",Montréal,QC,H3A 1T9,45.5047528,-73.5725866,3.0,45,1,Restaurants;Korean
2114,XLc5WIzafCocqsycQhvEPw,"""Goods & Provisions""",Leslieville,"""1124 Queen Street E""",Toronto,ON,M4M,43.6623424,-79.3351969,4.0,82,1,Bars;Nightlife;Restaurants;Gastropubs
2140,ai9r_wv56TPzwtrfUEPXTw,"""Maurya East Indian Roti""",Liberty Village,"""150 E Liberty Street""",Toronto,ON,M6K 3R5,43.6387753,-79.4162573,3.0,25,1,Indian;Restaurants
2179,HKExCPp1uxyQY1jlfYAhkA,"""The South Side BBQ Restaurant""",South Side,"""75 S 17th St""",Pittsburgh,PA,15203,40.4293613,-79.9817741,3.5,14,1,Restaurants;Barbeque
2183,kQGJ5QUJ0BAIpmYYtf7Uqw,"""Upper Deck By Fran's""",Downtown Core,"""2-20 College Street""",Toronto,ON,M5G 1K2,43.6614505,-79.384068,3.0,25,1,Venues & Event Spaces;Nightlife;Event Planning & Services;Bars;Restaurants;American (Traditional)
2184,xlUoy-OVO-EgZzfiHJk1Hg,"""Wendy's""",Steele Creek,"""8720 Rachel Freeman Way""",Charlotte,NC,28278,35.1637880258,-80.9722954028,2.0,12,1,Restaurants;Fast Food;Burgers
2187,X184O0qgC5MKvePbsSe-nA,"""Sushi On the Run""",Downtown Core,"""444 Yonge Street""",Toronto,ON,M5B 2H4,43.6610059,-79.383213,3.5,19,1,Event Planning & Services;Caterers;Sushi Bars;Restaurants
2189,Xyaw8gVBFDdn6rp_NtLhnw,"""Neighbor Wang""",Downtown Core,"""389 Church Street""",Toronto,ON,M5B 2A1,43.6615274,-79.3788491,3.0,27,1,Restaurants;Noodles;Chinese
2196,k99J9BJuHeUBNOCxV6D97A,"""Noble Coffee""",The Junction,"""1421 Bloor Street W""",Toronto,ON,M6P 3L4,43.657146264,-79.4478765875,5.0,6,1,Food;Cafes;Coffee & Tea;Restaurants;Sandwiches
2203,16Fplxu-OwVmTEFxQAUP4g,"""TENDER Steak & Seafood""",The Strip,"""3900 Las Vegas Blvd S""",Las Vegas,NV,89109,36.0953556397,-115.176614273,3.5,421,1,Nightlife;Restaurants;Steakhouses;Bars;American (Traditional)
2222,sETpHfJy4dmbawM5iYNTrg,"""Wild Wing""",Queen Street West,"""225 Queen St W""",Toronto,ON,M5V 1Z4,43.6504317,-79.3880904,1.5,28,1,Restaurants;Chicken Wings
2232,kaVWvc71cXH9MKuQmDtVUA,"""Pho Thai Binh""",Chinatown,"""4631 W Spring Mountain Rd""",Las Vegas,NV,89102,36.1263001,-115.2037174,3.0,12,1,Vietnamese;Restaurants
2238,dP1_wP59hvVDWNzFFS_6YQ,"""Subway""",The Strip,"""3999 Las Vegas Blvd S""",Las Vegas,NV,89119,36.0903898131,-115.172310372,2.0,15,1,Restaurants;Sandwiches;Fast Food
2240,mKT30qU_MlLj4Ps82JAZ8w,"""Uno Pizzeria & Grill""",High Crossing,"""3010 Crossroads Dr""",Madison,WI,53718,43.1354903,-89.2908119,3.0,65,1,Pizza;American (Traditional);Restaurants;Gluten-Free
2241,X4w6_iAqN8ZqZ15a7YWPgw,"""Mr Brews Taphouse""",High Crossing,"""5271 High Crossing Blvd""",Madison,WI,53718,43.1380457692,-89.2894092848,3.0,34,1,Beer Bar;Burgers;Nightlife;Bars;Restaurants
2262,QIcXq4Z3_2lvg9rmmoGF-A,"""Ruby Tuesday""",Starmount,"""8905 Red Oak Blvd""",Charlotte,NC,28217,35.1390711,-80.9082719,2.5,62,1,American (Traditional);Nightlife;Restaurants;Burgers;Bars;American (New)
2271,aHRwaqenQHy98AwWjbHvdA,"""Ye Olde Orchard""",Ville-Marie,"""1189 Rue de la Montagne""",Montréal,QC,H3G 1Z2,45.4971935,-73.5735572,4.0,54,1,Irish Pub;Irish;Restaurants;Bars;Nightlife;Pubs;Barbeque
2285,Y7wIhT6UvCukRYTTS5ErFQ,"""Le Trou Normand Restaurant""",Yorkville,"""90 Yorkville Ave""",Toronto,ON,M5R 1B9,43.6710492,-79.391714,2.5,10,1,French;Restaurants
2297,mGp_u4o32WwqejkGbcZByA,"""Hong""",Marchmont,"""21 Argyle Place""",Edinburgh,EDH,EH9 1JJ,55.938429,-3.191725,3.5,9,1,Fast Food;Restaurants
2309,T5nTtSCSRoEYMsZPhF61wg,"""Waffles Cafe""",Centennial,"""6446 N Durango Dr, Ste 150""",Las Vegas,NV,89149,36.2779836878,-115.286947773,4.0,270,1,Breakfast & Brunch;Coffee & Tea;Restaurants;Food
2310,84WYW7OfV-IXUJk95EL5_Q,"""Samba Brazilian Grill""",Capitol,"""240 W Gilman St, Fl 2""",Madison,WI,53703,43.07546,-89.393063,3.5,173,1,Restaurants;Brazilian
2321,gKFDJ9IpFxt95DHxTN7ZHw,"""Gyro Time Restaurant""",Northwest,"""7660 W Cheyenne Ave""",Las Vegas,NV,89129,36.2191781,-115.2624712,3.5,75,1,Restaurants;Mediterranean;Greek
2325,xlHRYejgZj-iTm-QPhc8zQ,"""The Ship on the Shore""",Leith,"""24-26 The Shore""",Edinburgh,EDH,EH6 6QN,55.9768348,-3.1691219,4.0,38,1,Restaurants;Seafood
2338,TdQw5Q6KZeJJSvc18u_SWg,"""Presse Café""",Laval,"""1794 Avenue Pierre-Peladeau, Suite G07""",Laval,QC,H7T 2Z1,45.5615972252,-73.7431925448,2.5,10,1,Restaurants;Coffee & Tea;Food;Sandwiches;Breakfast & Brunch;Cafes;Internet Cafes
2361,-ltD-dHqdZ5-wjAMKYa6Ng,"""La Bella Managua""",Christie Pits,"""872 Bloor Street W""",Toronto,ON,M6G 1M5,43.6622312,-79.4249898,4.5,159,1,Restaurants;Nicaraguan;Latin American
2372,Y84fM25GsIWfS7E0dMIKDQ,"""Cedar Street Tavern""",Third Ward,"""120 N Cedar St, Ste 755""",Charlotte,NC,28202,35.2334512,-80.848997,3.5,62,1,Bars;Restaurants;American (Traditional);Nightlife;Arts & Entertainment
2391,e4DWxBtNzA4wcrtCoH6upw,"""Ristorante Corneli""",Rosemont-La Petite-Patrie,"""6741 Boulevard St-Laurent""",Montréal,QC,H2S 3C8,45.5321389972,-73.6124968529,4.0,30,1,Italian;Restaurants;Pizza
2395,-7bRnaHp7OHz8KW-THqP4w,"""Buffalo Bill Wings""",Ville-Marie,"""3171 Rue Saint-jacques""",Montréal,QC,H4C 1G7,45.4835884,-73.5801248,1.5,10,1,Restaurants;Chicken Wings
2420,77N3luh2YzfJFJGFIfqqbw,"""Duke's Upper Deck Cafe""",Homestead,"""122 W 8th Ave""",Homestead,PA,15120,40.405311,-79.912595,3.5,50,1,American (New);Nightlife;Pubs;Bars;Restaurants
2435,GjN0jxb1sW2mX0QEEqq77w,"""Eko Sushi""",Sud-Ouest,"""3502 Rue Notre-Dame Ouest""",Montréal,QC,H4C 1P3,45.4803144,-73.5794934,4.0,9,1,Restaurants;Japanese;Sushi Bars
2436,xVmBc0jyYkb9rjz6X9BPiQ,"""Hoang Oanh Sandwich""",Ville-Marie,"""1071 Boul Saint-Laurent""",Montréal,QC,H2Z 1J6,45.508483,-73.560387,3.5,24,1,Sandwiches;Restaurants
2442,Vbkb2shDxUE8H3PzrFnypA,"""Ella's Deli""",Eken Park,"""2902 E Washington Ave""",Madison,WI,53704,43.1035133,-89.344598,3.0,249,1,Local Flavor;Restaurants;Burgers;Museums;American (Traditional);Delis;Arts & Entertainment;Food;Ice Cream & Frozen Yogurt
2444,A1ZRCrjOMOwQGj2hCYWDEQ,"""KFC""",Summerlin,"""10267 W Charleston Blvd.""",Las Vegas,NV,89135,36.1588,-115.316,1.5,38,1,Chicken Wings;Restaurants;Fast Food
2452,BniKRU3VRju7IAy5bn2RXQ,"""The Caribbean Queen of Patties""",Bloordale Village,"""1294 Bloor Street W""",Toronto,ON,M6H 1N9,43.6585983,-79.4421236,3.0,7,1,Caribbean;Restaurants;Specialty Food;Food
2457,UwXOqtr0LCoWsGXP96fOuQ,"""Fiesta Filipina Cuisine""",Anthem,"""2980 St Rose Pkwy, Ste 120""",Henderson,NV,89183,36.0054036506,-115.117831742,3.5,151,1,Fast Food;Filipino;Restaurants;Specialty Food;Ethnic Food;Food
2465,beuVp5CZxCdNvQIIPBS2rw,"""Chubby Cattle""",Chinatown,"""3400 S Jones Blvd, Ste 15""",Las Vegas,NV,89146,36.1273078,-115.2243612,4.5,516,1,Do-It-Yourself Food;Barbeque;Restaurants;Hot Pot;Chinese;Fondue;Mongolian;Food
2495,oL_fYqSHG63vR0TBMyoo_A,"""Green Leaf's & Bananas""",Downtown,"""875 S Grand Central Pkwy, Ste 1490""",Las Vegas,NV,89106,36.163691,-115.157758,2.0,23,1,Soup;Restaurants;Ice Cream & Frozen Yogurt;Food;Salad;Juice Bars & Smoothies
2496,RJMblVTTzmEefL8Cge_TrQ,"""T|Bar""",Downtown Core,"""Chelsea Hotel, 33 Gerrard Street W""",Toronto,ON,M5G 1Z4,43.658428,-79.3831689,3.5,10,1,Nightlife;Bars;Indian;Restaurants;Hotels;Hotels & Travel;Event Planning & Services
2497,d2VIjNbJpJterw--jU-hUQ,"""Da House Of Jerk""",Etobicoke,"""680 Rexdale Blvd""",Etobicoke,ON,M9W 7J6,43.7210755,-79.6139697,2.5,12,1,Caribbean;Restaurants
2502,kkvhQBT1Oh73sVSYZMXeDA,"""McDonald's""",Starmount,"""9505 South Blvd""",Charlotte,NC,28273,35.107271,-80.880374,1.0,8,1,Burgers;Fast Food;Restaurants
2503,y_9Nu0uJ-VgRbGZf_6g49w,"""Waiter's Choice Catering""",Starmount,"""8031 Arrowridge Blvd""",Charlotte,NC,28273,35.134436,-80.908506,5.0,6,1,Caterers;Active Life;Professional Services;Personal Assistants;Party & Event Planning;Restaurants;Event Planning & Services
2537,UqcCjCbN2SIiAGm9YyaNwg,"""The Shmooz""",Riverdale,"""590 Pape Avenue""",Toronto,ON,M4K 3R8,43.6751912,-79.3434759,4.5,15,1,Tea Rooms;Cafes;Coffee & Tea;Restaurants;Food
2542,svNL-EcyVxiZ-X74DhzNeA,"""Café Touski""",Ville-Marie,"""2361 Rue Ontario Est""",Montréal,QC,H2K 1W1,45.5311418,-73.5545896,4.0,31,1,Breakfast & Brunch;Food;Restaurants;Coffee & Tea;Gluten-Free;Comfort Food
2558,7qHU_Zh5qEJP3DaaBHqWBg,"""Saigon Lotus""",Chinatown,"""6 St Andrew Street""",Toronto,ON,M5T 1K6,43.6543257,-79.3990234,4.5,82,1,Thai;Restaurants;Vietnamese;Vegan;Vegetarian
2562,8B_ipmGG-zd8SUd7_0JqFQ,"""Fat Bastard Burrito""",Rockwood Village,"""4141 Dixie Road""",Mississauga,ON,L4W 1V5,43.624469766,-79.601987984,3.5,19,1,Mexican;Restaurants;Tex-Mex
2566,bxUtoCqGF9GbiPv5DbOs4g,"""Panera Bread""",Ballantyne,"""14835 Ballantyne Village Way""",Charlotte,NC,28277,35.053051,-80.850809,3.0,45,1,Restaurants;Food;Breakfast & Brunch;Bagels;Salad;Soup;Sandwiches
2568,NdvUzwz3jAM7Hao_UPMu6g,"""Popeyes Louisiana Kitchen""",Chinatown,"""267 College Street""",Toronto,ON,M5T 1R6,43.6576683,-79.3996063,2.5,15,1,Fast Food;Restaurants;Chicken Wings
2576,P_8hs6FRRn8IVBg5G6c0rg,"""Silver Bowl""",Leith,"""311 Leith Walk""",Edinburgh,EDH,EH6 8SA,55.9646673,-3.1763835,4.0,16,1,Thai;Chinese;Restaurants;Fast Food
2579,TO6ND0GjB1el8FFQJwChuw,"""Our Thai Restaurant & Cafe""",Edgeley,"""60 Interchange Way, 7A""",Vaughan,ON,L4K 5C3,43.7885261,-79.5310616,3.0,36,1,Restaurants;Thai
2580,XAKZ6ADzAvK_IaFojW4wpA,"""La Jawab Grill""",Box Grove,"""160 New Delhi Drive, Units 28-29-30""",Markham,ON,L3S 0B6,43.8510379533,-79.2536222935,3.0,28,1,Indian;Pakistani;Restaurants
2583,kKNauD7d3HOvumRV7JIAfg,"""Knuckle Sandwich""",East York,"""969 Coxwell Avenue""",Toronto,ON,M4C 3G4,43.6962242,-79.3288728,4.0,68,1,Poutineries;Event Planning & Services;Caterers;Restaurants;Sandwiches
2584,Izd-To33XTMnjM19XRonhw,"""Amigo""",Ville-Marie,"""1027 Boulevard Saint-Laurent, 2e étage""",Montréal,QC,H2Z 1J4,45.508069923,-73.5598046176,4.0,40,1,Chinese;Restaurants
2595,g9i9xFh9HtPWNLMB3ru3ug,"""Campbell's Sweets Factory""",Ohio City,"""2084 W 25th St""",Cleveland,OH,44113,41.482953,-81.702793,4.5,62,1,Specialty Food;Restaurants;Desserts;Cupcakes;Bakeries;Food;Popcorn Shops;Chocolatiers & Shops;Cafes
2603,gh0mBl_SBZ6kX9mYMq-R5g,"""Syogun Japanese Cuisine""",Brown's Corners,"""8261 Woodbine Avenue""",Markham,ON,L3R 8Z5,43.844189,-79.3560497,3.0,118,1,Japanese;Restaurants
2625,wjf1uZNr6E4LQ0nUNHX5AA,"""Rivas Mexican Grill #2""",Eastside,"""3025 E Desert Inn Rd, Ste1""",Las Vegas,NV,89121,36.128693,-115.1091,3.5,66,1,Restaurants;Mexican
2652,lBf_TcBWS7XF-TA4qT8MgQ,"""The Wine Shop""",Steele Creek,"""14142 Rivergate Pkwy""",Charlotte,NC,28273,35.1023452,-80.9845723,4.0,117,1,Diners;Restaurants;Food;Nightlife;Bars;American (New);Wine Bars;Beer;Wine & Spirits
2683,Dj-SKw-awL_g7rHgCbCOew,"""Popeyes Louisiana Kitchen""",Greektown,"""523 Danforth Avenue""",Toronto,ON,M4K 1P7,43.6782397,-79.3482024,1.5,9,1,Restaurants;Fast Food;American (Traditional)
2698,9HlkMsJdc7Q7sRSrxgOCsg,"""Eiscafé Venedig""",Rathaus,"""Königstr. 66""",Stuttgart,BW,70173,48.7744,9.17456,2.5,6,1,Cafes;Restaurants;Street Vendors;Ice Cream & Frozen Yogurt;Coffee & Tea;Food
2699,j4170xdQJTwSvXFpsQzWtg,"""Rincón Criollo""",Detroit-Shoreway,"""6504 Detroit Ave""",Cleveland,OH,44102,41.4842063,-81.7306185,3.5,64,1,Mexican;Caribbean;Breakfast & Brunch;Latin American;Puerto Rican;Restaurants
2738,gzomja0V-gAHJckvwwwFCQ,"""Shopsy's Deli & Restaurants""",Downtown Core,"""96 Richmond Street W""",Toronto,ON,M5H 2A3,43.6510886,-79.3829192,3.0,24,1,Event Planning & Services;Caterers;Restaurants;Delis
2739,O1QugfyKD4G636jV43-vkw,"""Swiss Chalet Rotisserie & Grill""",Scarborough,"""2555 Victoria Park Ave""",Toronto,ON,M1T 1A3,43.7733050681,-79.3217043851,3.0,10,1,American (Traditional);Barbeque;Restaurants;Comfort Food
2787,nHFJtud7jWZhM9dHQ1eIRA,"""Buk Chang Dong Soon Tofu""",Koreatown,"""691 Bloor Street W""",Toronto,ON,M6G 1L3,43.6636232,-79.4169815,4.0,381,1,Korean;Restaurants
2802,6WWXpMwIB7gTc4yZrkM-fQ,"""Hot Dog On A Stick""",The Strip,"""3850 Las Vegas Blvd S""",Las Vegas,NV,89109,36.0988311768,-115.175765991,3.5,17,1,Fast Food;Food;Hot Dogs;Restaurants
2840,nZHGlgwG2DZEr3AOOazS5w,"""Montana's BBQ & Bar""",East Credit,"""5031 Hurontario St""",Mississauga,ON,L4Z 3X7,43.608029,-79.65418,2.5,23,1,American (Traditional);Fast Food;Steakhouses;Canadian (New);Restaurants;Comfort Food
2853,KbLI0QELlAwbfDUVwo43DQ,"""Cajun Yard Dog""",Arboretum,"""8036 Providence Rd, Ste 900""",Charlotte,NC,28277,35.0971237982,-80.7805609703,4.0,240,1,Restaurants;American (New);Salad;Cajun/Creole
2854,jxbEwtV8Et1lm8ubk4AGuw,"""Mimosas Gourmet""",Spring Valley,"""3455 S Durango Dr, Ste 114""",Las Vegas,NV,89117,36.1271903,-115.2800102,4.5,205,1,Restaurants;Breakfast & Brunch
2859,QTYA1yCbsCjRU6BYDdQJuw,"""Sweet Pea Dessert Cafe""",Milliken,"""633 Silver Star Boulevard, Unit 121""",Scarborough,ON,M1V 5N1,43.8221402,-79.2985083,3.5,60,1,Food;Restaurants;Chinese;Desserts
2867,Tm2dKN_-DCdZfF2xMWrX7w,"""Siam Cafe""",Goodrich Kirtland,"""3951 St Clair Ave NE""",Cleveland,OH,44114,41.516469,-81.6649131,4.0,187,1,Chinese;Thai;Restaurants;Asian Fusion;Seafood
2869,jfOyDJ-W4lV47Y61pPcMfQ,"""Etat-Major""",Mercier-Hochelaga-Maisonneuve,"""4005 rue Ontario Est""",Montréal,QC,H1W,45.5494899,-73.5417795,4.5,26,1,French;Canadian (New);Restaurants
2878,XIg92ukZJn_1aiNx0OmusQ,"""Restaurant Greenspot""",Sud-Ouest,"""3041 Notre-Dame Rue O""",Montréal,QC,H4C 1N9,45.480889,-73.5787889,4.0,57,1,Canadian (New);Restaurants
2881,_4noxz6NM0gBeVhZ58Emtg,"""Lamanna's Bakery""",Scarborough,"""6758 Kingston Road""",Scarborough,ON,M1B 1G8,43.7981853,-79.1482369,4.0,136,1,Bakeries;Restaurants;Food;Italian;Desserts
2888,yefjEAyoNfHj43tz_5hhHQ,"""Phoenix Noodle House""",Milliken,"""4350 Steeles Avenue E""",Markham,ON,L3R 9V4,43.8254466,-79.3050432,3.5,7,1,Food Court;Restaurants;Chinese
2907,9GA2gmLV4NX2oJkuz6fdcA,"""Garage Door Saloon""",Oakland,"""223 Atwood St""",Pittsburgh,PA,15213,40.4407028,-79.9567901,3.0,33,1,Sports Bars;Dive Bars;Pizza;Restaurants;Nightlife;Bars;Cocktail Bars
2908,ecXP80GWT6zZ2qqZHpUCtQ,"""Muramoto Downtown""",Capitol,"""108 King St""",Madison,WI,53703,43.0747897,-89.3812071306,4.0,15,1,Bars;Nightlife;Cocktail Bars;Sushi Bars;Restaurants;Asian Fusion
2925,6BL92dndWIhhyA7KZ7j9Fw,"""Bagels on Greene""",Ville-Marie,"""4160 Sainte-Catherine Rue W""",Westmount,QC,H3Z 1P4,45.4862525,-73.5875134,4.0,34,1,Bagels;Restaurants;Food;Sandwiches;Breakfast & Brunch;Internet Cafes;Grocery
2926,_PKa6Dj06Q2AHKGkpJ7GnA,"""Z-Best BBQ""",The Hill District,"""1315 5th Ave""",Pittsburgh,PA,15219,40.4388749,-79.9875623,4.5,28,1,Barbeque;Restaurants
2956,n4uDGwRGtJ3vW2Adbha_wg,"""Restaurant Decca 77""",Ville-Marie,"""1077 Rue Drummond""",Montréal,QC,H3B 4X4,45.4973248,-73.5711434,3.5,27,1,Italian;Brasseries;Canadian (New);Restaurants;French;Middle Eastern
2975,KiP4NjelCHqNAf36JxXUQQ,"""Il Fornello""",Bayview Village,"""2901 Bayview Avenue""",North York,ON,M2K 1E6,43.7683298859,-79.3861432385,3.0,53,1,Pizza;Italian;Restaurants
2978,Ae4ABFarGMaI5lk1i98A0w,"""Himalayan Kitchen""",Parkdale,"""1526 Queen Street W""",Toronto,ON,M6R 1A1,43.6402599,-79.438905,4.5,47,1,Restaurants;Indian;Himalayan/Nepalese
2983,Xqur5VuobC9WW3crdxZPBw,"""Amlee Chinese Cuisine""",Southeast,"""3827 E Sunset Rd""",Las Vegas,NV,89120,36.0707165,-115.0911257,3.5,98,1,Soup;Chinese;Restaurants;Salad
2988,PBghJox_ZpSSa2nWyYuxpw,"""Taco Bell""",Anthem,"""199 N Pecos Rd""",Henderson,NV,89074,35.9913338911,-115.101586374,2.5,14,1,Restaurants;Fast Food;Tex-Mex;Mexican
2998,RaVI3l5uEbH5dD2bJJzObw,"""South St. Burger""",Financial District,"""360 Bay Street, Unit A""",Toronto,ON,M5H 2V6,43.6507191125,-79.381404072,3.5,23,1,Restaurants;Burgers;Fast Food
3002,irZlUo2wdBiQjryQhU_rSw,"""Tampopo""",Plateau-Mont-Royal,"""4449 Rue De Mentana""",Montréal,QC,H2J 3B4,45.5268401,-73.5795328,3.0,21,1,Asian Fusion;Restaurants;Thai;Vietnamese;Chinese
3007,uCi2ropZuhG4XVcMDaurAw,"""Rachel's Kitchen""",Anthem,"""2265 Village Walk Dr""",Henderson,NV,89052,36.021113,-115.087495,4.0,329,1,Food;American (New);Gluten-Free;Breakfast & Brunch;Restaurants;Sandwiches;Juice Bars & Smoothies
3022,J0YWF-bOcMKuSWg36GAq9g,"""Venice MTL""",Ville-Marie,"""440 Rue Saint-Francois-Xavier""",Montréal,QC,H2Y 2T3,45.503202,-73.556388,3.5,67,1,Salad;Food;Juice Bars & Smoothies;Italian;Restaurants
3043,j0aiaJkrU-5VgbCsdx-txg,"""Chris Jerk Caribbean Bistro""",Scarborough,"""2570 Birchmount Road""",Toronto,ON,M1T 2M5,43.7903314,-79.302267,4.5,217,1,Caribbean;Middle Eastern;Restaurants
3045,kPwj57sDfiJxNkYw-4M9VQ,"""Bâton Rouge""",Laval,"""3035 Boulevard le Carrefour""",Laval,QC,H7T 1C8,45.5710730773,-73.7512054964,3.5,31,1,Barbeque;Seafood;American (Traditional);Gluten-Free;Steakhouses;Restaurants;Canadian (New)
3046,RadvHxEGJLdp9IvNWzv30g,"""Sweet! Mobile Cupcakery""",University,"""All Over Cleveland""",Cleveland,OH,44106,41.5091257,-81.6089873,4.0,10,1,Food;Food Stands;Restaurants;Desserts
3055,K67pkQljTFTW_P-7xUQrFw,"""L'Académie""",Plateau-Mont-Royal,"""4051 Rue Saint-Denis""",Montréal,QC,H2W 2M7,45.5208947,-73.5761619,3.0,73,1,Restaurants;Italian;French
3086,AnXovUgUHJap3QaDRnjL1w,"""Blueberry Hill Family Restaurant""",Eastside,"""3790 E Flamingo Rd""",Las Vegas,NV,89121,36.1161975,-115.092388,4.0,331,1,Breakfast & Brunch;Diners;American (New);Restaurants
3095,bsFZnc2mYyGy5cFf5EWTWg,"""Aji Sai Japanese Restaurant""",Queen Street West,"""467 Queen Street W""",Toronto,ON,M5V,43.6483773,-79.3974007,3.0,254,1,Japanese;Restaurants
3125,s38vKr-DGXMXuTkUic2qoA,"""Booster's On Main""",Unionville Mainstreet,"""175 Main Street Unionville""",Markham,ON,L3R 2G8,43.8671720702,-79.3119040132,3.0,29,1,Food;Asian Fusion;Juice Bars & Smoothies;Canadian (New);Sports Bars;Restaurants;Bars;Nightlife
3129,sz6_gKcHjtcpWKIZLXV85w,"""Or, The Whale""",Downtown,"""463 Blvd of the Allies""",Pittsburgh,PA,15219,40.437299,-79.9984685,4.0,61,1,Breakfast & Brunch;Restaurants;American (Traditional);Seafood;Nightlife;Bars
3133,yZ_wpRr4Svw8YRZ9voCgIw,"""The Vandal""",Lawrenceville,"""4306 Butler St""",Pittsburgh,PA,15201,40.4707671,-79.9599462,4.0,148,1,American (New);Sandwiches;Burgers;Soul Food;Cafes;Coffee & Tea;Breakfast & Brunch;Food;Modern European;Restaurants
3143,9O0jWqGnHkBsXMOd-KOl4w,"""Hot and Sour""",East Credit,"""1010 Dreamcrest Road, Unit 2""",Mississauga,ON,L5V 3A4,43.5912006,-79.6797662,3.0,20,1,Restaurants;Asian Fusion;Halal;Chinese
3146,VYOtofDcgJIV5-vPUd4sZA,"""Cicis""",Sunrise,"""309 N Nellis Blvd, Ste 120""",Las Vegas,NV,89110,36.1669127274,-115.063594034,3.0,42,1,American (Traditional);Restaurants;Pizza
3152,B19KKE75ZxqoR3EDuvA1qw,"""China Star""",Westside,"""4595 W Charleston Blvd""",Las Vegas,NV,89102,36.1586341,-115.2030893,3.0,69,1,Restaurants;Chinese
3162,Q5rybJSXsYpi0Weju8fR5A,"""Second Cup""",Plateau-Mont-Royal,"""900 Mont-Royal Avenue E""",Montréal,QC,H2J 1X2,45.5265076,-73.5803714,3.5,9,1,French;Food;Restaurants;Coffee & Tea
3173,U6Jf5-cUyxkMbXdxLLq6IA,"""Juliette & chocolat""",Outremont,"""377 Avenue Laurier Ouest""",Montreal,QC,H2V 2K3,45.5191325,-73.5964654,3.5,54,1,Desserts;Creperies;Food;Restaurants
3174,nM9NwHXy3EadihjJTG2i5w,"""Pancho's Vegan Tacos""",Eastside,"""4865 S Pecos Rd, Ste 5""",Las Vegas,NV,89121,36.1007774746,-115.101814503,4.5,193,1,Vegan;Mexican;Restaurants;Tacos
3182,LQFmktF43j2NPncKdNd9mg,"""Fat Heads Saloon""",South Side,"""1805 E Carson St""",Pittsburgh,PA,15203,40.4289667,-79.9801756,4.0,657,1,Restaurants;Bars;Nightlife;American (Traditional)
3195,p5rpYtxS5xPQjt3MXYVEwA,"""Greens and Proteins""",Southeast,"""8975 S Eastern Ave""",Las Vegas,NV,89123,36.0262317,-115.1192573,4.0,635,1,Juice Bars & Smoothies;Cafes;Vegetarian;American (New);American (Traditional);Sandwiches;Vegan;Food;Pizza;Breakfast & Brunch;Burgers;Restaurants
3196,SknYYIK1rBNgYqNl4tYUPA,"""Marias Taco Shop""",Southeast,"""7380 S Eastern Ave, Ste 118""",Las Vegas,NV,89123,36.055748,-115.1170812,3.5,31,1,Restaurants;Mexican
3214,5qK5rJxwo0cjP3vTf3lkSA,"""Little Caesars Pizza""",Northwest,"""6621 W Cheyenne Ave""",Las Vegas,NV,89108,36.2178018,-115.2406243,1.5,24,1,Restaurants;Pizza
3231,HNjuGzWT0O9Xk_9q_9HF3g,"""Golden Star Restaurant & Tavern""",Downsview,"""2133 Jane Street""",North York,ON,M3M 1A2,43.7195197,-79.5081706,1.5,8,1,Restaurants;Nightlife;Chinese
3236,2UCXCbv7qaO3d8FfQd4Ing,"""Pizza Bellino""",Squirrel Hill,"""5839 Forbes Ave""",Pittsburgh,PA,15217,40.4382114,-79.9213674,3.0,62,1,Salad;Pizza;Chicken Wings;Restaurants
3239,j2w6wlRmlaZaaErQus8ElQ,"""Pita House""",Southeast,"""1310 E Silverado Ranch Blvd, Ste 101""",Las Vegas,NV,89183,36.0140871839,-115.135131108,4.5,243,1,Restaurants;Vegan;Mediterranean
3253,pOEL97ld-FJMKO8Ki8JmYg,"""Oliver & Bonacini Café Grill""",Bayview Village,"""2901 Bayview Avenue""",Toronto,ON,M2K 1E6,43.7681639838,-79.3864043032,3.0,233,1,Canadian (New);Italian;Restaurants;American (Traditional)
3256,9_1N2SoNoS3DGV9V-4kndw,"""Craftwork Kitchen""",Downtown,"""600 Grant St""",Pittsburgh,PA,15219,40.441355,-79.994853,4.0,23,1,Food Court;Event Planning & Services;Caterers;Restaurants
3275,l_pR3x7v2mvE3luVdmGuoQ,"""Orient Kitchen""",Bloomfield,"""4808 Baum Blvd""",Pittsburgh,PA,15213,40.4541975,-79.947105,3.0,60,1,Sushi Bars;Restaurants;Chinese
3279,ufwkkMd9yr9cFU1R5ONArg,"""Huevos Gourmet""",New Toronto,"""2888 Lake Shore Boulevard W""",Toronto,ON,M8V 1J2,43.6012391,-79.5037742,4.5,129,1,Restaurants;Breakfast & Brunch;French;Mexican
3293,yv8m3r2v3xQtDCYnwJa99Q,"""Nando's""",Old Town,"""71-73 Lothian Road""",Edinburgh,MLN,EH3 9AZ,55.9469343791,-3.205600358,4.0,34,1,Fast Food;Portuguese;Chicken Wings;Restaurants
3295,4UIsN3GpiPsL5vZxUMKsHg,"""Laura's Kitchen""",West End,"""33 William Street""",Edinburgh,EDH,EH3 7LW,55.9488038979,-3.2137262821,4.5,14,1,Coffee & Tea;Event Planning & Services;Caterers;Restaurants;Food;Cafes;Breakfast & Brunch
3305,mjhwLcuoenVW8oFhcNmlHA,"""Claim Jumper""",Westside,"""1100 S Fort Apache Rd""",Las Vegas,NV,89117,36.1586208868,-115.290936644,3.0,306,1,American (New);Restaurants
3324,nufnlBHEukhwqRA4LD-Q3A,"""Summerhall Kitchen""",Newington,"""9 Summerhall Pl""",Edinburgh,EDH,EH9 1QE,55.9393424,-3.1819044,2.5,7,1,Restaurants;Chinese;Fast Food
3335,ikglIr6lytozzOh9KFqurQ,"""Restaurant Thailande""",Plateau-Mont-Royal,"""88 Rue  Bernard Ouest""",Montréal,QC,H2T 2J8,45.5263615,-73.6030666,4.0,32,1,Thai;Restaurants
3338,WKlMFUCGI7dCysGkFLWvaQ,"""Stagioni""",South Side,"""2104 E Carson St""",Pittsburgh,PA,15203,40.4282783,-79.9760041,4.0,108,1,Nightlife;Venues & Event Spaces;Event Planning & Services;Bars;Restaurants;Wine Bars;Italian;Breakfast & Brunch;Pizza
3390,sVeSK69iNUUsMU6tpXzl6Q,"""Angelina's Pizzeria""",Anthem,"""835 Seven Hills Dr""",Henderson,NV,89052,35.9967416,-115.1246816,3.0,219,1,Restaurants;Pizza
3420,1BtNZszIr8LvtPOhN0X4Mw,"""Gold Mine Bar & Grill""",Eastside,"""3950 Koval Ln""",Las Vegas,NV,89109,36.1179234185,-115.160769756,2.5,26,1,American (Traditional);Bars;Nightlife;Restaurants
3427,sqpgdaQV5-GBsn8IIrAT6A,"""Sushi Shop""",Côte-des-Neiges,"""5510 Rue Jean-Talon O, Suite 3-A""",Montréal,QC,H4P 2T5,45.4924655,-73.6559888,3.0,8,1,Sushi Bars;Japanese;Asian Fusion;Thai;Restaurants
3444,CfW-088nFNuUF9O7363lwA,"""Panera Bread""",Capitol,"""656 W Washington Ave""",Madison,WI,53703,43.067837,-89.395321,3.0,22,1,Food;Restaurants;Sandwiches;Bagels;Soup;Bakeries;Breakfast & Brunch;Salad
3447,x9f9NBMweyyjCQHuc9K4sw,"""Uptown Brie""",Yonge and Eglinton,"""11 Castelfield Avenue""",Toronto,ON,M4R 1G3,43.7115815,-79.3998416,4.5,7,1,Breakfast & Brunch;Cheese Shops;Specialty Food;Restaurants;Sandwiches;Food
3450,HiqYus6muaBFlZtHhES7XQ,"""Del Taco""",Southwest,"""4800 W Cactus Ave""",Las Vegas,NV,89141,35.9987412358,-115.205506682,2.0,24,1,Restaurants;Mexican;Fast Food
3474,7Xw_vv-ekUL2sTqipnKT0g,"""Buffalo Wild Wings""",Southeast,"""7430 Las Vegas Blvd South, Suite 120""",Las Vegas,NV,89123,36.054301,-115.171477,2.5,398,1,Chicken Wings;Nightlife;Sports Bars;Restaurants;American (Traditional);Bars;Barbeque
3481,ZhLSAiRj9kANxf8m2SBfRA,"""Lucki Thai""",Southeast,"""467 E Silverado Ranch Blvd""",Las Vegas,NV,89183,36.0119846411,-115.153598562,4.5,560,1,Thai;Local Flavor;Restaurants
3501,NQXuoB9JTPUItHvouMgWjQ,"""Violette's Vegan Organic Cafe & Juice Bar""",Westside,"""8560 W Desert Inn Rd, Ste D5""",Las Vegas,NV,89117,36.1300289,-115.2777727,4.0,538,1,Juice Bars & Smoothies;Vegetarian;Vegan;Restaurants;Food
3519,OMUe6NNOFEe0VdAouIqAuA,"""Sofia's Cafe""",Westside,"""3380 Arville St, Ste C""",Las Vegas,NV,89102,36.1286741,-115.1988504,3.5,39,1,Soup;Pizza;Restaurants;Mediterranean;Italian
3530,q3ilBINLR7KoBBlxSqCvlA,"""Pine House Cafe""",Scarborough,"""21-5661 Steeles Avenue E""",Toronto,ON,M1V 5P6,43.8318675265,-79.2659023002,3.5,22,1,Breakfast & Brunch;Restaurants;Asian Fusion;Cafes;Chinese
3534,W_nU2qtu1AEDDCgkCo0gJg,"""Phoenix Restaurant""",Unionville,"""1 Raymerville Dr""",Markham,ON,L3P 5J5,43.8767094,-79.28582,3.5,118,1,Chinese;Restaurants
3570,-T0M3exc6tC6sw5LjtVdDQ,"""Silver Bullet Diner""",Eastland,"""6003 Albemarle Rd""",Charlotte,NC,28212,35.203507,-80.743549,3.5,12,1,Burgers;Food;Restaurants;Breakfast & Brunch;Coffee & Tea
3571,mvMih24zuSw_dZyU_LEY7g,"""Pizza Hut""",Sunrise,"""5105 E. Sahara Ave., #128""",Las Vegas,NV,89142,36.1442831,-115.0625725,2.5,20,1,Pizza;Restaurants;Chicken Wings
3575,YibFraUOKh4gnepR5YMmww,"""Auld Jocks Pie Shoppe""",Grassmarket,"""24 George IV Bridge""",Edinburgh,EDH,EH1 1EN,55.947874764,-3.1942155782,3.5,6,1,British;Bakeries;Food;Restaurants
3577,9Xm2GfG8Rnbb1_CmXyrm3g,"""Coaltrane's Char Grill""",Plaza Midwood,"""1518 Central Ave""",Charlotte,NC,28205,35.2201725,-80.8126243,3.5,19,1,Salad;Sandwiches;American (Traditional);Argentine;Restaurants
3593,S1N5-ZXwR4fUIPs6dLnBYQ,"""Hue Thai""",Chinatown,"""5115 Spring Mountain Rd, Ste 223""",Las Vegas,NV,89146,36.125587,-115.211199,3.5,318,1,Restaurants;Vietnamese;Chinese;Thai
3607,_-u3js_j6WHkRZ416gBeog,"""Bistro Entre Ciel et Terre""",Verdun,"""750 Rue de l'Eglise""",Verdun,QC,H4G 2M8,45.4629621,-73.5730338,4.0,20,1,Bistros;Italian;French;Seafood;Restaurants
3614,N60yOH1GpH8wE9kln7m3XQ,"""Cafe de Noir""",Brookline,"""802 Brookline Blvd""",Pittsburgh,PA,15226,40.3935102,-80.0200891,4.5,9,1,Coffee Roasteries;Internet Cafes;Coffee & Tea;Restaurants;Sandwiches;Food
3635,QCH8Lk9uC4_rkqA2ls2y4w,"""The Bailie""",New Town,"""2 St Stephen Street, Stockbridge""",Edinburgh,EDH,EH3 5AL,55.9574050252,-3.2072246075,4.0,20,1,Restaurants;Gastropubs
3642,3nR6JE3hD-D-Fhzr10_k7g,"""Mitchell's Fish Market""",Homestead,"""185 W Waterfront Dr""",Homestead,PA,15120,40.4089628544,-79.9180766056,3.5,153,1,American (Traditional);Seafood Markets;Restaurants;Specialty Food;Food;Seafood
3653,yGV1NHdDOmG93iy6aPpDJw,"""The Parkdale Drink""",Parkdale,"""1292 Queen Street W""",Toronto,ON,M6K 1L4,43.6419757,-79.4304835,3.0,19,1,Nightlife;Sushi Bars;Restaurants;Bars;Lounges
3696,X2lgI8CuVEsH5UDs14rMhw,"""Andys Wine Bar""",Downtown,"""510 Market Street""",Pittsburgh,PA,15222,40.4414335,-80.0020533,3.5,59,1,Jazz & Blues;Wine Bars;Restaurants;Arts & Entertainment;Bars;Nightlife;Cocktail Bars
3731,8A_GP28T-gqf91qJRI-lDQ,"""Taco Bell""",Eastland,"""6424 Albemarle Rd""",Charlotte,NC,28212,35.20255,-80.73531,2.0,7,1,Tex-Mex;Restaurants;Mexican;Fast Food
3738,7Cm5SCTu7LePBCXTUaEiwQ,"""Shark Club Sports Bar & Grill""",Ryerson,"""10 Dundas St East, Suite 310""",Toronto,ON,M5B,43.6567455,-79.380484,2.5,121,1,Lounges;Canadian (New);Sports Bars;Bars;Restaurants;Nightlife
3746,UJ6X84uqTpMDWyc9aHYMpA,"""The Pump House Grille""",Port Credit,"""40 Lakeshore Road E""",Mississauga,ON,L5G 1C8,43.5521559,-79.585443,3.5,67,1,Breakfast & Brunch;American (Traditional);Seafood;Restaurants;Salad;Burgers
3758,IRIlwpomRvnXvpkeaGaM2A,"""Saint Sushi Bar""",Plateau-Mont-Royal,"""424 Avenue Duluth E""",Montréal,QC,H2L 1A3,45.521106,-73.575346,4.5,279,1,Sushi Bars;Japanese;Restaurants
3766,vrmMoIzCoMP5Ic7Un7retQ,"""Super Sandwich""",Ville-Marie,"""1115 Rue Sherbrooke Ouest""",Montréal,QC,H3A 1H3,45.5018209302,-73.5769079626,4.5,9,1,Food;Sandwiches;Restaurants;Convenience Stores;Delicatessen
3773,29iErFPoWBTbIVPpp9qSyg,"""Ohio Tavern""",Schenk - Atwood,"""224 Ohio Ave""",Madison,WI,53704,43.0938947,-89.3473282,4.0,34,1,Mexican;Nightlife;Restaurants;Karaoke;Tacos;Dive Bars;Bars
3774,QS7_BPmaBNvznOMhcVBemg,"""Silk Road Asian Bistro""",Eastside,"""3000 Paradise Rd""",Las Vegas,NV,89109,36.1362575,-115.1512526,3.0,35,1,Chinese;Ramen;Japanese;Barbeque;Restaurants;Vietnamese
3775,zEd3Ex_k3vHiBbBPWRrO7Q,"""Panda Express""",Summerlin,"""7560 W Lake Mead Blvd""",Las Vegas,NV,89128,36.1976151704,-115.260134434,2.5,34,1,Fast Food;Chinese;Restaurants
3780,dNRDKgVXq1r_nQ585I78jQ,"""Tim Hortons""",Ville-Marie,"""674 Rue Sherbrooke O""",Montréal,QC,H3A 1E7,45.504952,-73.573109,2.0,16,1,Breakfast & Brunch;Bakeries;Food;Restaurants;Coffee & Tea
3786,R-EGIdIgtoFzl--OudANtA,"""Yummy Cantonese Restaurant""",Scarborough,"""4400 Sheppard Avenue E""",Scarborough,ON,M1S 5J5,43.7875292,-79.2696349,3.5,32,1,Restaurants;Chinese
3810,0_jLX4hS_GKJ-4R7JYmxxg,"""Milk""",West End,"""232 Morrison Street""",Edinburgh,EDH,EH3 8EA,55.9462800213,-3.2136680172,4.0,41,1,Sandwiches;Food;Vegetarian;British;Coffee & Tea;Restaurants;Cafes;Breakfast & Brunch
3825,l1JDX-o0wCLykuh78R8Kng,"""Whitfield""",East Liberty,"""120 S Whitfield St""",Pittsburgh,PA,15206,40.4613153,-79.9263448,4.0,137,1,Restaurants;American (New)
3827,9edPSkfXKsJmkZYIaOmA7Q,"""Las Vegas South Premium Outlets""",Southeast,"""7400 Las Vegas Blvd S""",Las Vegas,NV,89123,36.0539333477,-115.168928254,3.5,393,1,Shopping;Restaurants;Shopping Centers;Fashion;Outlet Stores
3834,6Q5XNrz-EXX1tI-3UHR2Pw,"""Le Mitoyen""",Laval,"""652 Place Publique""",Laval,QC,H7X 1G1,45.5286465,-73.8204449,5.0,6,1,Restaurants;French
3838,Yv4P4qUwd7F-qQ4Y4eD1JQ,"""Han Ba Tang""",Willowdale,"""4862 Yonge Street""",Toronto,ON,M2N 5N2,43.7629282,-79.4115105,3.5,227,1,Lounges;Pubs;Asian Fusion;Tapas/Small Plates;Restaurants;Nightlife;Korean;Bars
3863,8kLF0uiDIwVZMOj2JmoA8A,"""La Rusticana""",New Town,"""90 Hanover Street""",Edinburgh,EDH,EH2 1EL,55.9541807,-3.1977951,4.0,9,1,Italian;Restaurants
3896,5ecBEnLsF75q706JlH1DUg,"""Black Rock Coffee""",Koreatown,"""677 Bloor Street W""",Toronto,ON,M6G 1L3,43.6638699152,-79.4163757834,4.0,18,1,Food;Internet Cafes;Coffee & Tea;Restaurants;Cafes
3914,bHnHcNkORD898OpPq4L5vA,"""Lei Yue Mun Steam Hot Pot""",Milliken,"""240 Alton Towers Circle, Unit 110""",Toronto,ON,M1V,43.8264886,-79.2772729,3.5,15,1,Hot Pot;Restaurants;Chinese
3935,F2HKV9oJhnIKQ-M4Gt4Ftg,"""Voodoo Wing Company""",Northwest,"""6728 W Cheyenne Ave""",Las Vegas,NV,89108,36.2185398,-115.2431106,4.0,227,1,Food;Barbeque;Chicken Wings;Restaurants
3939,mQkVFNSDpD4frPUMycVoWw,"""Solstice Restaurant & Wine Bar""",Clarkson,"""1801 Lakeshore Road W""",Mississauga,ON,L5J 1J6,43.5165531,-79.6250747,4.0,30,1,Bars;Canadian (New);Nightlife;Wine Bars;Italian;Caterers;Restaurants;Event Planning & Services
3941,VeYLpoglt8XepYdN2PjSmA,"""Hakka Wow""",Leslieville,"""1433 Gerrard Street E""",Toronto,ON,M4L 1Z7,43.672085,-79.3220862,3.5,52,1,Hakka;Restaurants;Chinese
3947,IamoMhG184_RXvhSDckFwg,"""Hamish Kitchen Restaurant""",Scarborough,"""95 Lebovic Avenue""",Toronto,ON,M1L 4V9,43.7216783,-79.2887888,4.0,6,1,Seafood;Restaurants
3951,p5HLsmZpzqsZpOng04I8eQ,"""Disanto Pizza""",South Side,"""125 W Station Square Dr""",Pittsburgh,PA,15219,40.4330076,-80.0045618,2.0,9,1,Restaurants;Pizza;Italian
3957,uHUcYpGlcdlu5m7oiZGY6w,"""Max's Restaurant""",University,"""1290 E Flamingo Rd""",Las Vegas,NV,89119,36.114859,-115.136639,3.0,345,1,Restaurants;Seafood;Filipino;Breakfast & Brunch;Asian Fusion
3967,5JjGTaZkHbbjBrzBODcsAQ,"""Daisho Sushi""",Southeast,"""7435 S Eastern Ave""",Las Vegas,NV,89123,36.055832,-115.120023,4.0,268,1,Salad;Japanese;Sushi Bars;Restaurants
3981,jdbA0oUH8mGG8aSigNa-5g,"""Shalom Ethopian Restaurant""",Cabbagetown,"""587 Parliament Street""",Toronto,ON,M4X 1P9,43.6675136,-79.36912,5.0,7,1,Ethiopian;Restaurants
4004,9SsjBLmevA18JmHngxtQJw,"""Les Cavistes""",Ahuntsic-Cartierville,"""196 Rue Fleury O""",Montréal,QC,H3L 1T5,45.545757,-73.666302,4.0,10,1,Wine Bars;Sports Bars;Canadian (New);Restaurants;Seafood;Bars;Bistros;Nightlife;French
4021,1LSdIQQVvzzyDyiYPxztkg,"""Vegenation""",Anthem,"""10075 S Eastern Ave""",Henderson,NV,89052,36.0051261,-115.1127292,4.5,59,1,Vegan;Restaurants
4024,etzDsNjkCyQBoJcU2a3U-g,"""Denny's""",Southeast,"""9320 S Eastern Ave""",Las Vegas,NV,89123,36.0198206582,-115.118057951,3.0,80,1,American (Traditional);Diners;Restaurants;Breakfast & Brunch
4026,swQkNTXXg_j27u27iSiwbg,"""Quik Chik""",East Credit,"""801 Matheson Boulvard W, Unit 16""",Mississauga,ON,L5V 2R4,43.6062361,-79.6915473,4.0,8,1,Chicken Wings;Southern;Fast Food;Restaurants
4028,GT9Hx_Na0vH3Na7ym9dp4A,"""Shooters Bar & Grill""",Sunrise,"""4465 E Sahara Ave""",Las Vegas,NV,89104,36.1439838,-115.0774281,4.0,15,1,Pizza;Chicken Wings;Restaurants;American (Traditional);Pubs;Bars;Nightlife
4034,4hF4GRvNfb5wkRdMnAthVQ,"""Bäckerei & Konditorei Hafendörfer""",Heusteigviertel,"""Heusteigstr. 35""",Stuttgart,BW,70180,48.7697,9.17908,4.5,15,1,Bakeries;Cafes;Restaurants;Food;Coffee & Tea;Patisserie/Cake Shop
4050,V0HFqgI1pidUghIqE09s-A,"""Little Sito""",Christie Pits,"""840 Bloor Street W""",Toronto,ON,M6G 1M2,43.6624826,-79.4238902,4.0,12,1,Restaurants;Lebanese;Middle Eastern;Vegan
4063,DLwpjhatiSRN7QqZQwokSw,"""La Tortilleria""",Kensington Market,"""198 Augusta Ave""",Toronto,ON,M5T 1L8,43.6543794,-79.402228,2.5,42,1,Mexican;Restaurants
4069,eDDfWMKqrk1UjJDpaJxloQ,"""Mac's Sushi""",Erin Mills,"""Erin Mills Town Centre, 5100 Erin Mills Parkway""",Mississauga,ON,L5M 5H7,43.5598192,-79.7083531,4.5,7,1,Japanese;Restaurants;Sushi Bars
4074,hsbtcqamJjmL6ASCAWnQVw,"""Carmellas Pizza Grill""",South Park,"""1513 Montford Dr""",Charlotte,NC,28209,35.1707675107,-80.8502115901,3.5,17,1,Nightlife;Karaoke;Pizza;Bars;Restaurants
4075,mZI_wVrLOjz4M-QIC9n-jA,"""PT's""",University,"""1089 E Tropicana Ave""",Las Vegas,NV,89119,36.1008854,-115.1384919,2.5,35,1,Bars;Sports Bars;Pubs;Restaurants;American (New);Nightlife
4089,6PGu-aeUMxL5YVz542-Ulw,"""Greek Brothers""",Pine Grove,"""3603 Langstaff Road""",Vaughan,ON,L4L 9G7,43.8084206,-79.5484044,4.0,61,1,Restaurants;Greek
4092,SjmtOnyHgdKFDUkAuyPcMw,"""Veggie Flames""",Old Malton Village,"""7210 Airport Road""",Mississauga,ON,L4T 2H3,43.707728,-79.647878,3.5,6,1,Restaurants;Vegan;Indian;Vegetarian
4098,9NMKFyr3Cw5wt_mlqv3U1g,"""JINYA Ramen Bar""",Downtown Core,"""399 Church Street, Suite 100""",Toronto,ON,M5B 2A1,43.6617053,-79.3791114,3.5,146,1,Ramen;Japanese;Restaurants
4105,ZtJ6sTq7-5rL9ORUtQJHAQ,"""Gaetano's Ristorante""",Anthem,"""10271 S Eastern Ave, Ste 111""",Henderson,NV,89052,36.0029991,-115.1105835,4.0,358,1,Italian;Restaurants
4106,FNe5PPA9pyj8FjcDefCBpg,"""Weera Thai Restaurant""",Westside,"""3839 W Sahara Ave, Ste 7-9""",Las Vegas,NV,89102,36.143956,-115.1930886,4.0,648,1,Thai;Restaurants;Food;Bars;Food Delivery Services;Noodles;Vegetarian;Beer;Wine & Spirits;Nightlife;Beer Bar;Wine Bars
4127,Xgp67egWT56FmGrULkKOJg,"""Subway""",Centennial,"""6475 N Decatur Blvd, Ste 110""",Las Vegas,NV,89131,36.2768676,-115.2078847,2.5,12,1,Sandwiches;Fast Food;Restaurants
4139,BGGR5ekPK6YqMRHgYNJGsw,"""Mexi-Casa""",Dormont,"""3001 W Liberty Ave""",Pittsburgh,PA,15216,40.392908,-80.0368113,3.0,71,1,Restaurants;Mexican
4155,z65wZ11iw7Y-WBZ9UDZhnA,"""Pisa Pizza""",The Strip,"""3635 S Las Vegas Blvd, Ste 103""",Las Vegas,NV,89109,36.1143130753,-115.172434844,4.0,36,1,Restaurants;Pizza
4159,7gzCdoL1Zuk-S1Tf55lp4Q,"""Farrouj Express""",Plateau-Mont-Royal,"""3575 Du Parc Avenue, Suite 5200""",Montréal,QC,H2X 3P9,45.5103334,-73.5750222,4.5,8,1,Restaurants;Middle Eastern;Canadian (New);Food;Food Delivery Services;Lebanese;Mediterranean
4161,HrR_2-HUE6cqnoz1zMN9AQ,"""Pizzeria Omaggio""",Myers Park,"""1055 Metropolitan Ave, Ste 130""",Charlotte,NC,28204,35.2133541063,-80.8345772705,4.5,147,1,Food;Italian;Restaurants;Pizza
4164,BYtfEQbogCxinze2epU3pg,"""Shabu Shabu Kagayaki""",Ville-Marie,"""75 Rue de la Gauchetière Ouest""",Montréal,QC,H2Z 1C2,45.507214,-73.560775,3.5,45,1,Japanese;Restaurants;Fondue
4172,gldPX9ANF5Nic0N7igu2og,"""Condado Tacos""",Downtown,"""971 Liberty Ave""",Pittsburgh,PA,15222,40.4438089,-79.9954857,4.0,237,1,Mexican;Restaurants;Tacos;Nightlife;Cocktail Bars;Bars
4175,kQabQnNavQ7FgfyuXf8Niw,"""Papa Murphy's""",Southwest,"""8595 S Decatur Blvd""",Las Vegas,NV,89139,36.0335123,-115.2084299,3.5,28,1,Restaurants;Pizza;Gluten-Free;Salad
4178,TW58a4UkMcksdfQ7znUqsA,"""Doh Korean BBQ""",Southwest,"""7920 S Rainbow Blvd, Ste 105""",Las Vegas,NV,89139,36.0447183,-115.2427053,4.0,308,1,Restaurants;Barbeque;Korean
4197,gG2S0HPvInQDUKdCJmpfqA,"""Subway""",Third Ward,"""718 W Trade St, Ste G""",Charlotte,NC,28202,35.2331042877,-80.8496199619,2.5,14,1,Restaurants;Sandwiches;Fast Food
4212,6fd9EIo9TAFvJLkfC7_qYA,"""L'Avenue""",Sud-Ouest,"""3612 Rue Notre-Dame O""",Montreal,QC,H4C 1P5,45.4796017581,-73.5808397256,4.5,47,1,Breakfast & Brunch;Restaurants
4214,EqUlVPI8t9A96BIvWdW1pw,"""Joey's Tavern""",Northwest,"""7081 W Craig Rd""",Las Vegas,NV,89129,36.237869,-115.248219,3.5,53,1,Bars;American (New);Restaurants;Nightlife
4216,6pG7n8Rx_7ZXeQQk690Nsw,"""Fair Trade Coffee House""",Capitol,"""418 State St""",Madison,WI,53703,43.075046,-89.392028,4.0,73,1,Coffee & Tea;Cafes;Restaurants;Food;Sandwiches
4233,ChDwauPdg7djhT0F_D6ZFg,"""L'in-Time""",Verdun,"""4619 Rue Wellington""",Verdun,QC,H4G 1X1,45.458197,-73.5675366,4.0,8,1,Seafood;Mediterranean;Italian;Belgian;Restaurants
4239,SWZ_GqiaAoc4JoUOosF0mg,"""The Sugar Corner""",University,"""1083 E Tropicana Ave""",Las Vegas,NV,89119,36.1006924561,-115.139449359,4.0,43,1,Restaurants;Bakeries;Cuban;Ethnic Food;Food;Specialty Food;Latin American;Breakfast & Brunch
4241,WHHmwtzZoQbm2v9DbMlgFA,"""The Homeway""",Yonge and Eglinton,"""955 Mount Pleasant Rd""",Toronto,ON,M4P 2L7,43.7125495,-79.3914071,3.0,53,1,Diners;Restaurants
4253,m5niZy68d2gTtVWz89elfA,"""Slidin Thru""",Southeast,"""6478 Windy Rd""",Las Vegas,NV,89119,36.071643,-115.176101,4.0,364,1,Restaurants;Food Trucks;Food Stands;Food;Burgers
4258,axnI-1l2a_kydvL12-toIQ,"""King's Fish House- Henderson""",Anthem,"""2255 Village Walk Dr, Ste 139, The District at Green Valley Ranch""",Henderson,NV,89052,36.0208796613,-115.086857985,4.0,241,1,Seafood;Restaurants
4260,XriJk1yVLlBd2rIhk0s_eA,"""Pacer's Bar & Grill""",East 185th,"""19800 S Waterloo Rd""",Cleveland,OH,44119,41.5795777916,-81.5417591798,3.0,9,1,Restaurants;Barbeque;American (Traditional)
4267,E7s0QreUJ2H9r0Ls1yDeiQ,"""David Bann""",Old Town,"""56-58 St Marys Street, Old Town""",Edinburgh,EDH,EH1 1SX,55.9495128423,-3.1832812483,4.0,117,1,Vegetarian;Vegan;Restaurants
4285,YovgOGBWuIB-TTcuWJdpRQ,"""Restaurant O Cantinho""",Villeray-Saint-Michel-Parc-Extension,"""3204 Jarry Rue E""",Montréal,QC,H1Z 2E2,45.5632,-73.609835,4.0,20,1,Restaurants;Portuguese
4287,hWpHSSGx4oxxtiJuDEioFw,"""Pomegranate Restaurant""",New Town,"""1 Antigua Street, Leith Walk""",Edinburgh,EDH,EH1 3NH,55.9576817365,-3.1850913231,4.0,24,1,Middle Eastern;Restaurants
4289,UANNbspNsQEFUay5nALZYw,"""Roberto's Taco Shop""",Southeast,"""6475 S Pecos Rd""",Las Vegas,NV,89120,36.0724028,-115.101393,3.0,47,1,Mexican;Restaurants;Fast Food
4291,Qsg-2Coum0ccbXuJWDwZqA,"""Dogwood Southern Table & Bar""",South Park,"""4905 Ashley Park Ln, Ste D""",Charlotte,NC,28210,35.145938695,-80.8300620574,4.5,221,1,Restaurants;American (New);Southern
4293,Ir_QIzs-4o9ElOtiGuxJrw,"""Torteria Lupita""",Sud-Ouest,"""4601 Rue Notre-Dame O""",Montréal,QC,H4C 1S5,45.4736323,-73.5881347,4.0,11,1,Sandwiches;Restaurants;Mexican;Breakfast & Brunch
4295,XIX4xuzrt3IzvjX9MtHr9g,"""Mayflower Chinese Food""",Etobicoke,"""1500 Royal York Road""",Etobicoke,ON,M9P 3B6,43.6919456,-79.531593,3.5,30,1,Chinese;Restaurants
4300,aDHD7nASfqiQBB6YXy2aGA,"""The Pretzel Shop""",South Side,"""2316 E Carson St""",Pittsburgh,PA,15203,40.4280121,-79.9722633,4.5,96,1,Restaurants;Sandwiches;Food;Pretzels;American (Traditional)
4303,1zKjojtmAHuVOHhtGVxC2Q,"""Jukebox""",Ohio City,"""1404 W 29th St""",Cleveland,OH,44113,41.4895582,-81.7108939,4.5,55,1,Bars;Arts & Entertainment;Cocktail Bars;Nightlife;Restaurants;Music Venues
4304,ZQ49AFC15QBPaoS7p4NTUg,"""Bistro l'Enchanteur""",Villeray-Saint-Michel-Parc-Extension,"""7331 avenue Henri Julien""",Montréal,QC,H2R 2B1,45.5379123,-73.6181754,3.5,25,1,Cafes;Gastropubs;Breakfast & Brunch;French;Restaurants
4307,3CxiP8n7DAL-YOOTCW2wNw,"""Jack in the Box""",Spring Valley,"""7025 S Durango Dr""",Las Vegas,NV,89113,36.059982,-115.279878,2.5,35,1,Restaurants;Fast Food
4317,btw-Bspe_uUVnsKcPb4fXA,"""YakiYami""",Plateau-Mont-Royal,"""1371 Avenue Du Mont-Royal E""",Montréal,QC,H2J 1Y8,45.5306121,-73.5769676,2.5,7,1,Restaurants;Asian Fusion
4319,KJn6MkHUXtpMKloNT8_iVw,"""La Libre""",The Annex,"""14 Dupont Street""",Toronto,ON,M5R 1V3,43.6770684,-79.3981842,2.0,6,1,Mexican;Restaurants
4333,IaM6botxt6axGP0N9cs8dQ,"""Fu Gui Fang""",Rathaus,"""Schulstr. 12""",Stuttgart,BW,70173,48.775966389,9.1768584397,3.5,21,1,Chinese;Restaurants
4347,w53wITixOgDFWld-X1mMng,"""Main Depot Tavern""",Capitol,"""627 W Main St""",Madison,WI,53703,43.0672802,-89.392125,4.0,14,1,American (Traditional);Nightlife;Restaurants;Bars;Pubs
4375,f12Zv1B9crmSW58iyTR_mA,"""Midwood Smokehouse""",Ballantyne,"""12410 Johnston Rd""",Charlotte,NC,28277,35.0701594,-80.8435633,4.0,228,1,Restaurants;Barbeque;Food;Smokehouse;American (Traditional)
4407,T6r1CjkbVHMsGpR2dlyXuQ,"""Sushiya Japan""",Arboretum,"""8200 Providence Rd, Ste 500""",Charlotte,NC,28277,35.0952753,-80.7791381,4.0,76,1,Restaurants;Food;Food Delivery Services;Japanese;Asian Fusion;Sushi Bars
4416,OVTZNSkSfbl3gVB9XQIJfw,"""Cravings Buffet""",The Strip,"""3400 Las Vegas Blvd S""",Las Vegas,NV,89109,36.121237,-115.174105,3.0,1252,1,American (Traditional);Buffets;Restaurants;American (New)
4420,B2S7o3tImoCPrDVvJikVpw,"""Red@28th""",Villa Heights,"""2424 N Davidson St, Ste 112A""",Charlotte,NC,28205,35.241553,-80.812092,3.0,52,1,Shopping;Venues & Event Spaces;Coffee & Tea;Hookah Bars;Bookstores;Food;Restaurants;Event Planning & Services;Arts & Entertainment;Books;Mags;Music & Video;Bars;Nightlife
4423,O_DugEeIsuQ0rrDt2aLeRw,"""Flip!""",Newington,"""54 Clerk Street""",Edinburgh,EDH,EH8 9JB,55.9420318604,-3.1817009449,4.0,11,1,Juice Bars & Smoothies;Restaurants;Food;Sandwiches
4427,2vYRUAonMg9HBUDs30NL8g,"""Pub Bishop & Bagg""",Plateau-Mont-Royal,"""52 Rue Saint-Viateur O""",Montréal,QC,H2T 2K8,45.5250592935,-73.5994327883,4.0,59,1,Beer;Wine & Spirits;Bars;British;American (Traditional);Cocktail Bars;Breakfast & Brunch;Restaurants;Food;Comfort Food;Nightlife;Pubs
4459,NQBhCRbFKQOfyAY8kRYP8g,"""Café Replika""",Plateau-Mont-Royal,"""252 Rue Rachel Est""",Montréal,QC,H2W 1E5,45.5204940225,-73.5794209852,4.5,68,1,Turkish;Food;Restaurants;Cafes
4475,pPyg8s0O8JB7bDCaCj398w,"""East End Brewing Taproom""",Strip District,"""102 19th St""",Pittsburgh,PA,15222,40.4509048171,-79.9849490505,4.5,33,1,Breweries;Tapas Bars;Food;Nightlife;Restaurants;Bars;Beer Bar
4500,ZUJL4EBj7bBYYIQn8J6EVw,"""Schnitzel Queen""",Corktown,"""211 Queen Street E""",Toronto,ON,M5A 1S2,43.6542017,-79.3704857,4.5,58,1,Restaurants;Czech;German;Sandwiches
4502,1tqN27mCI7UBLxEiZPfueQ,"""Oggi""",Neue Vorstadt,"""Kleiner Schloßplatz 11""",Stuttgart,BW,70173,48.7787845671,9.1762862329,3.5,87,1,Pizza;Restaurants;Italian
4535,O0DxNujKaN-KIfcgbV3MgA,"""Pollo Inka Express""",Downtown,"""2440 S Maryland Pkwy""",Las Vegas,NV,89104,36.144531023,-115.137545876,4.0,123,1,Restaurants;Peruvian;Latin American;Fast Food
4578,FV5Rb3zfPjl8na4jD3uHNw,"""McDonald's""",Kirkland,"""3600 Boulevard Saint-Jean""",Dollard-Des-Ormeaux,QC,H9G 1X1,45.4707235129,-73.8330413483,3.0,6,1,Fast Food;Burgers;Restaurants
4606,9OKpMIR4rs5w9Hi6LBRhUg,"""The Black Horse""",Dovercourt,"""928 Bloor St W""",Toronto,ON,M6H 1L4,43.6617093,-79.4274058,3.5,18,1,Restaurants;Burgers
4610,XmLh2lAVaX1XseJ09TNpOQ,"""Wendy's""",Etobicoke,"""5250 Dundas Street W""",Etobicoke,ON,M9B 1A9,43.6383944,-79.5389464,2.5,7,1,Burgers;Fast Food;Restaurants
4626,riFzCvp77DMKDX-5GoTpqA,"""Steak 'n Shake""",Southeast,"""9777 Las Vegas Blvd S""",Las Vegas,NV,89183,36.0114062572,-115.1757787,3.5,778,1,Restaurants;Food;Fast Food;Burgers
4656,ycgRwiiB06C05tK9GkA4iw,"""Jimmy the Greek""",Downtown Core,"""218 Yonge Street""",Toronto,ON,M5B 2H6,43.6535342,-79.3799716,2.5,9,1,Mediterranean;Restaurants;Greek
4657,JrD90K-V1tfPWbWjPgSXmA,"""Ilhas De Bruma""",Brockton Village,"""1136 College Street W""",Toronto,ON,M6H 1B5,43.652334,-79.433657,4.0,15,1,Restaurants;Portuguese;Seafood
4659,tctcZciCoDCkkmIDjX5utA,"""Cacique Grill""",Plateau-Mont-Royal,"""1 Avenue du Mont-Royal O""",Montréal,QC,H2T,45.5200929437,-73.5864438862,4.0,26,1,Restaurants;Latin American;Venezuelan
4665,2S9t90Q0qZWCV7X_u0rxZQ,"""Kenzo Ramen""",Downtown Core,"""138 Dundas Street W""",Toronto,ON,M5G 1C3,43.6556064,-79.3850226,3.0,222,1,Soup;Ramen;Restaurants;Japanese
4679,IRzXVRIzRoYpnjaVXF3vNA,"""Northside Café and Chinese Kitchen""",The Strip,"""SLS Las Vegas, 2535 S. Las Vegas Blvd""",Las Vegas,NV,89109,36.1423259,-115.1561477,3.5,512,1,Restaurants;Diners;Breakfast & Brunch;Cafes
4684,Gck19imUtC4SF8Ff9w_HGg,"""Burger King""",Steele Creek,"""8903 S Tryon St""",Charlotte,NC,28273,35.1370182,-80.936822,2.0,11,1,Fast Food;Burgers;Restaurants
4722,hfeu3UZ-OrCgf5mp6RBjvA,"""The Taste of Home""",Scarborough,"""3636 Steeles Avenue E, Unit 177-120""",Markham,ON,L3R 1K9,43.8187718,-79.3304516,3.0,9,1,Restaurants;Chinese
4763,GSzgEBYd1hYebz1xi5jrmw,"""Domino's Pizza""",Centennial,"""7591 N Cimarron Rd, Ste 110""",Las Vegas,NV,89131,36.2982383,-115.2700183,4.0,18,1,Chicken Wings;Sandwiches;Pizza;Restaurants
4765,N9vW3lZj_PspJy-d2wpnIA,"""WIP Sushi Lounge""",Rathaus,"""Esslinger Str. 22""",Stuttgart,BW,70182,48.77439,9.18228,4.0,10,1,Japanese;Sushi Bars;Restaurants
4770,QCSH3qx5smsDlESxVNwfEg,"""Which Wich""",Steele Creek,"""14318 Rivergate View Dr, Ste 100""",Charlotte,NC,28273,35.0986726707,-80.9882496938,4.0,23,1,Food;Restaurants;Sandwiches
4772,iBZEjiUcMn0HOU_9z5RUfA,"""Hero Certified Burgers""",Hanlan,"""6070 Dixie Road""",Mississauga,ON,L5T 1A6,43.656733,-79.649603,2.5,6,1,Restaurants;Burgers
4803,B_L1YVZN4C9dhap2Tn_jtg,"""Gobo Sushi""",Dufferin Grove,"""836 College Street""",Toronto,ON,M6H 1A1,43.6543789981,-79.4231938943,2.5,17,1,Restaurants;Sushi Bars
4805,zp-K5s3pGTWuuaVBWo6WZA,"""HoneyBaked Ham""",Westside,"""1112 S Rainbow Blvd""",Las Vegas,NV,89146,36.1583669,-115.2431523,4.0,32,1,Specialty Food;Sandwiches;Restaurants;Delis;Cafes;Meat Shops;Event Planning & Services;Food;Caterers
4813,zwg2PdDB6hac2mMjYkUhaQ,"""Tour de Food""",Third Ward,"""""",Charlotte,NC,28202,35.2326781,-80.8460822,4.5,16,1,Restaurants;American (New);Food Tours;Wine Bars;Nightlife;Bars;Tours;Hotels & Travel
4819,eYeFOcNJO2iTNPCPi8XAxw,"""El Pocho Antojitos Bar""",Seaton Village,"""2 Follis Avenue""",Toronto,ON,M6G 1S3,43.6696409,-79.4134258,4.5,32,1,Bars;Breakfast & Brunch;Restaurants;Mexican;Nightlife
4833,ym5FOqL6tGbgynzwKMHZuw,"""Crab Corner""",Spring Valley,"""6485 S Rainbow Blvd""",Las Vegas,NV,89118,36.0708818595,-115.243270866,3.5,438,1,Sports Bars;Restaurants;Bars;Nightlife;Seafood
4834,ris62LHWvRJt5j9FhHU03Q,"""Rally's""",Edgewater,"""1481 W 117th St""",Cleveland,OH,44102,41.4812468,-81.7687603,2.0,6,1,Burgers;Restaurants;Fast Food
4851,6TLahk3P8RhP7fZaWgAk0A,"""Hong Kong Gardens Tavern and Restaurant""",Etobicoke,"""2993 Bloor St W""",Etobicoke,ON,M8X 1C1,43.6475472,-79.5098814,3.0,13,1,Nightlife;Restaurants;Chinese
4893,hdZ_4Vd9opGm5UajNUuhwA,"""NYP- Pizzeria""",The Strip,"""New York New York Hotel & Casino, 3790 Las Vegas Blvd S""",Las Vegas,NV,89109,36.1023786,-115.1745465,3.5,113,1,Italian;Pizza;Restaurants
4906,NHucZLFgAhjlKKAKGd8R6g,"""Union of Genius""",Old Town,"""8 Forrest Road""",Edinburgh,EDH,EH1 2QN,55.9459706,-3.1909101,4.5,28,1,Food;Soup;Restaurants;Coffee & Tea
4924,AM0J_Zqno6HS_w2WMEsxNA,"""La Piazzetta""",Plateau-Mont-Royal,"""4097 Rue Saint-Denis""",Montréal,QC,H2W 2M7,45.521256,-73.576516,3.5,13,1,Italian;Pizza;Restaurants
4934,jtE4O9Y1YdZAoKfWTtNC3w,"""The Forth""",Greektown,"""629 Danforth Avenue""",Toronto,ON,M4K 1R2,43.6786894,-79.3454552,3.5,19,1,Event Planning & Services;Restaurants;Venues & Event Spaces;Canadian (New)
4941,PdCxX1QJnlBkvnG9fFjWYg,"""Sunflour Baking Company""",Elizabeth,"""2001 E 7th St""",Charlotte,NC,28204,35.2124,-80.817112,4.0,231,1,Food;Sandwiches;Coffee & Tea;Restaurants;Bakeries;Cafes
4958,P7Dqa0IbcFgRZ1aK7CPAOw,"""McDonald's""",Eastside,"""3815 S Maryland Pkwy""",Las Vegas,NV,89119,36.1200004708,-115.137856134,2.0,41,1,Burgers;Fast Food;Restaurants
4962,VeFqptSzekFAc3FZOpi81Q,"""Alexander Michael's""",Fourth Ward,"""401 W 9th St""",Charlotte,NC,28202,35.23361,-80.840783,4.5,313,1,Nightlife;Local Flavor;Bars;Cajun/Creole;American (Traditional);Restaurants;Pubs;Comfort Food
4964,chcfXvsOD44UBYgX118vZQ,"""Jamile's Cuisine International""",Eastland,"""4808 Central Ave""",Charlotte,NC,28205,35.211276,-80.762534,4.5,10,1,Halal;Restaurants;African
4979,TlWXWTycakYiPeRc4d3yTQ,"""Kabana""",Erin Mills,"""3435 Eglinton Avenue W, Unit 4""",Mississauga,ON,L5M,43.5433491,-79.7239522,2.5,12,1,Indian;Restaurants;Pakistani
4989,LCf4MZQcwgtniQUJ-MQBZA,"""Blue Ox East Restaurant & Lounge""",Eastside,"""4130 S Sandhill Rd""",Las Vegas,NV,89121,36.1139613,-115.0909203,4.0,44,1,Nightlife;Bars;American (Traditional);Restaurants
4995,qELIf4gzE_vlteu7pO7TZg,"""Atria's Restaurant""",North Side,"""103 Federal St""",Pittsburgh,PA,15212,40.4470921252,-80.004046381,3.0,94,1,Bars;Nightlife;Burgers;Seafood;Event Planning & Services;Sandwiches;Steakhouses;Salad;American (Traditional);Caterers;American (New);Restaurants
5009,89m0BsO8z9mYIIvKdwRfiQ,"""Tripolis Restaurant""",Laval,"""5034 Boulevard Samson""",Laval,QC,H7W 2J1,45.5264735,-73.7668973,3.5,11,1,Restaurants;Greek
5034,JPWg9acsCv_om9UFYGMJbA,"""Fleming's Prime Steakhouse & Wine Bar""",Westside,"""8721 W Charleston Blvd""",Las Vegas,NV,89117,36.1584963,-115.2857479,4.0,348,1,Nightlife;Breakfast & Brunch;Restaurants;Wine Bars;Bars;Seafood;Steakhouses
5039,b9caA3rPbseGPG1oycDiCA,"""Waffle House""",Starmount,"""2125 W Arrowood Rd""",Charlotte,NC,28217,35.1458134603,-80.9240420535,2.0,13,1,Waffles;Diners;American (Traditional);Restaurants;Breakfast & Brunch
5045,UkWme3kwg6L9rd4tCNB15w,"""Moji Japanese Eatery""",Unionville,"""A6-8362 Kennedy Road""",Markham,ON,L3R 9W5,43.860397,-79.303184,3.5,255,1,Restaurants;Japanese;Desserts;Seafood;Ramen;Food;Ice Cream & Frozen Yogurt
5067,-QNQ4R1VgRoL4b6lC8Anrg,"""Mizuya""",The Strip,"""3950 S Las Vegas Blvd""",Las Vegas,NV,89109,36.091869,-115.175256,3.0,121,1,Sushi Bars;Bars;Japanese;Restaurants;Nightlife;Lounges
5068,G-5kEa6E6PD5fkBRuA7k9Q,"""Giada""",The Strip,"""The Cromwell Las Vegas Resort & Casino, 3595 Las Vegas Blvd South""",Las Vegas,NV,89109,36.1150592072,-115.172109043,3.5,2349,1,Italian;Restaurants
5122,w7SGswPn3aT9EjJ0duIkQQ,"""TGI Friday's""",Meadowvale Village,"""Toronto Pearson International Airport, Terminal 3, Concourse A""",Toronto,ON,L5P 1B2,43.634486,-79.70339,2.5,6,1,American (New);Bars;Restaurants;Nightlife
5160,GNmUix03Fjar38DJWz_vsg,"""Kenji Sushi""",New Town,"""42 St Stephen Street""",Edinburgh,EDH,EH3 5AL,55.9579125,-3.2066161,5.0,6,1,Japanese;Restaurants;Sushi Bars
5169,-uRKqmzVCRxsuuH0nXq6Bw,"""La Matraca""",Plateau-Mont-Royal,"""4607, rue Saint-Denis""",Montréal,QC,H2J 2L3,45.5246077,-73.5843123,4.0,51,1,Mexican;Restaurants
5191,RwRNR4z3kY-4OsFqigY5sw,"""Uncle Tetsu's Japanese Cheesecake""",Downtown Core,"""598 Bay Street""",Toronto,ON,M5G 1M5,43.6559689,-79.3840134,3.5,848,1,Food;Desserts;Bakeries;Japanese;Restaurants
5211,kpuMEGNsjD4R5VnJa8IWTw,"""Dunn's Famous""",Ville-Marie,"""1249 Rue Metcalfe""",Montréal,QC,H3B 2V5,45.500557,-73.5716254,4.0,141,1,Poutineries;Burgers;Delis;Sandwiches;Restaurants
5215,KpK9IDybfThL_sR0zF5t4Q,"""Super Taste Chinese Cuisine""",Scarborough,"""4465 Sheppard Ave E""",Scarborough,ON,M1S 5H9,43.7879399,-79.2658103,3.5,7,1,Restaurants;Chinese
5223,l9RbdvFj3d5SPtyKfobyVA,"""Colonel Mustard's""",Unionville,"""6545 Highway 7""",Markham,ON,L3P 3B4,43.8715472245,-79.2662286758,2.0,12,1,Canadian (New);American (New);Restaurants
5227,5p60nXyjQruKvEZix6ahVQ,"""Vallozzis Pittsburgh""",Downtown,"""220 5th Ave""",Pittsburgh,PA,15222,40.4411279,-80.0014571,3.5,93,1,Bars;Nightlife;Restaurants;Italian;Wine Bars
5229,0KUyFnaBC9DyuB3swdiOCw,"""Chuck E Cheese's""",Lisgar,"""2945 Argentia Road""",Mississauga,ON,L5N 0A2,43.5998114958,-79.7836752419,3.5,11,1,Event Planning & Services;American (Traditional);Restaurants;Party & Event Planning;Pizza
5236,2fJVAT48V_eBf-vTjEOK_g,"""Marks & Spencer""",Old Town,"""Unit 9 - 4 Waverley Bridge, Edinburgh Waverley Station""",Edinburgh,EDH,EH1 1BQ,55.9523192069,-3.189068175,4.0,14,1,Food;Sandwiches;Restaurants;Grocery
5244,bnUH_Ejo7O49jsn3_x0A2g,"""Olive & Citron""",Notre-Dame-de-Grâce,"""5508 Avenue Monkland""",Montréal,QC,H4A 1C7,45.4764754,-73.621733,4.0,9,1,Greek;Restaurants
5250,4LiieRb-_r9pUCM0mKS9XA,"""Friendship Perk And Brew""",Bloomfield,"""300 S Pacific Ave""",Pittsburgh,PA,15224,40.4620069,-79.9406668,4.5,29,1,Coffee & Tea;Breakfast & Brunch;Food;Restaurants;Cafes
5264,AVPrE35Ss2sxIbCZ9qJtuQ,"""Cafeden""",Rosemont-La Petite-Patrie,"""6576 Boulevard Saint-laurent""",Montréal,QC,H2S 3C6,45.5311629,-73.6107867,4.5,15,1,Restaurants;Cafes;Vietnamese
5267,lCbvbCkJOn2ABdHrcFqNzQ,"""Chez José""",Plateau-Mont-Royal,"""173 Avenue Duluth E""",Montréal,QC,H2W 1H4,45.5187243,-73.5778004,4.0,102,1,Desserts;Food;Cafes;Portuguese;Sandwiches;Breakfast & Brunch;Bakeries;Restaurants
5273,Vlg_nesyZJfX_mpy2fslTQ,"""Le Marquis""",Villeray-Saint-Michel-Parc-Extension,"""367 Rue de Castelnau E""",Montréal,QC,H2R 1R1,45.5388055,-73.617828,5.0,24,1,Gluten-Free;Restaurants;Bakeries;Food
5291,EqabTFZBhh9k_1MVsCDvQQ,"""Ramen Plaza""",Rosemont-La Petite-Patrie,"""6553 Rue Saint-Hubert""",Montréal,QC,H2S 2M5,45.536665818,-73.603910096,3.0,13,1,Restaurants;Ramen;Japanese
5292,BmFStvt6hs77XmYR7zmHtQ,"""Touch""",Downtown Core,"""1 Adelaide St E""",Toronto,ON,M5C 1J4,43.6505593,-79.3776407,2.5,14,1,Restaurants;Indian
5295,uYl_QBtb7bXhu9sgb4kCrg,"""ABC the Tavern""",University,"""11434 Uptown Ave""",Cleveland,OH,44106,41.509333,-81.603917,3.5,61,1,American (Traditional);Bars;Caterers;Food;Event Planning & Services;Nightlife;Beer;Wine & Spirits;Restaurants
5299,vLOvmZzpcQv4e3wruKtl7g,"""Ted's Collision""",Little Italy,"""573 College Street""",Toronto,ON,M6G 1B2,43.6553179,-79.4129715,3.5,22,1,Nightlife;Dive Bars;Bars;Pubs;Restaurants
5304,TXNDK-DRjx2cfu7amxcIIA,"""Souvlaki Hut""",Birchwood,"""1725 Lakeshore Road W""",Mississauga,ON,L5J 1J4,43.5179024,-79.6228442,4.5,7,1,Restaurants
5338,iAD5r5vNOzc1AP6UA5yFiQ,"""Bella Fresco""",Arboretum,"""8200 Providence Rd""",Charlotte,NC,28277,35.095238,-80.779082,4.0,125,1,American (New);Mediterranean;Restaurants;Italian;Gelato;Ice Cream & Frozen Yogurt;Cafes;Food;Hawaiian
5368,NIepcNSKopCiennUfPDkNQ,"""Liberty Shawarma""",City Place,"""4 Spadina Avenue""",Toronto,ON,M5V 3Z2,43.6410515513,-79.3935844413,2.5,52,1,Middle Eastern;Restaurants
5385,eqg6UyuVLwzAplUvN9UkSw,"""Lisa Marie""",Trinity Bellwoods,"""638 Queen Street W""",Toronto,ON,M6J 1E3,43.6469223,-79.4060226,3.5,168,1,Canadian (New);Food;Restaurants
5390,nJVDHjoTilGmhLjXAOwiyg,"""Hemispheres""",Riverside,"""5300 Riverside Dr""",Cleveland,OH,44135,41.4106123,-81.838659,3.0,14,1,Airports;Hotels & Travel;Restaurants;American (New)
5393,N4y5wl9kukE0Q87rDXy4eg,"""Asti""",New Town,"""73 Broughton Street""",Edinburgh,EDH,EH1 3RJ,55.9581437,-3.1892193,4.5,12,1,Italian;Restaurants
5398,-cFce5TloT-REJDHDgKDbA,"""Sweet Lee's""",Verdun,"""4150 Rue Wellington""",Verdun,QC,H4G 1V7,45.4625913,-73.5670182,4.5,35,1,Food;Bakeries;Desserts;Comfort Food;Cafes;Restaurants
5407,Y0lKUy5UpDKLVs8-Q-9JsA,"""Island Palace""",Dixie,"""1125 Dundas Street E, Unit 12A""",Mississauga,ON,L4Y 2C4,43.6040563,-79.5907781,4.0,14,1,Caribbean;Restaurants
5436,kaFItSnFuTSpmohv2jDbrQ,"""McDonald's""",Westside,"""7851 W Charleston Blvd""",Las Vegas,NV,89117,36.1586268,-115.2630618,2.0,28,1,Fast Food;Burgers;Restaurants
5437,m2VU8FOQPdJjCkLto1SeOA,"""Aurora Meat Cheese & Salami""",Burnhamthorpe,"""3661 Dixie Road""",Mississauga,ON,L4Y 2B3,43.6224962,-79.601655,4.0,8,1,Delis;Sandwiches;Food;Restaurants;Cheese Shops;Specialty Food;Meat Shops
5453,tHlJKmUECTlj2amcGG0TOQ,"""Bobbie Sue's""",Ossington Strip,"""162 Ossington Avenue""",Toronto,ON,M6J,43.6478998,-79.4204573,4.0,70,1,Restaurants;Comfort Food
5456,Si_gSXVFFD8MxjtQhlIGdA,"""Ace Canton Kitchen""",Brown's Corners,"""8368 Woodbine Ave""",Markham,ON,L3R 9Y7,43.8465786,-79.3573347,3.0,6,1,Chinese;Restaurants
5469,ckZg3KVwR9FrAR1KtTavEQ,"""Amato's Pizza""",Etna,"""376 Butler St""",Pittsburgh,PA,15223,40.4970667,-79.9436929,2.5,7,1,Restaurants;Pizza
5502,BVxen382pORVZNQEDdQlKQ,"""Tabule Middle Eastern Cuisine""",Bayview Village,"""2901 Bayview Avenue""",Toronto,ON,M2K 1E6,43.7690883,-79.3854655,3.0,26,1,Restaurants;Middle Eastern
5572,laERkVWfXVeQcjMSNe65SA,"""The Double U""",Capitol,"""620 University Ave""",Madison,WI,53715,43.0733436,-89.3967426,3.0,12,1,Pizza;Bars;Sports Bars;Nightlife;Restaurants
5575,XFuNeVTGWZ-UOYO58NNmKg,"""The Statehouse""",Capitol,"""1001 Wisconsin Pl""",Madison,WI,53703,43.0791895,-89.3896863,3.0,80,1,Nightlife;Bars;Breakfast & Brunch;American (Traditional);Restaurants;American (New)
5588,ugGwVOx0MOIHFBLFV3oYUg,"""Golden Bakery""",Eastland,"""3145-B N Sharon Amity Rd""",Charlotte,NC,28205,35.2036949,-80.7605768,4.5,16,1,Middle Eastern;Food;Restaurants;Bakeries
5597,c4-w_6Xv4i2qRE3c4Qas7w,"""Ha Gow Dim Sum House""",The Danforth,"""988 Danforth Avenue""",Toronto,ON,M4J 1M1,43.6805778,-79.3375994,4.0,85,1,Food Delivery Services;Restaurants;Dim Sum;Chinese;Food
5648,rBnpbR-cfCD9CKy_ahCmsg,"""Nicky's Thai Kitchen""",North Side,"""856 Western Ave""",Pittsburgh,PA,15233,40.4521806,-80.0162337,4.0,361,1,Thai;Restaurants
5675,kaBMd8sgJvOh5CAgsP106g,"""Chef's Depot""",Scarborough,"""2900 Markham Road""",Toronto,ON,M1X 1E6,43.824727,-79.2482857,2.5,7,1,Grocery;Wholesale Stores;Specialty Food;Meat Shops;Restaurants;Seafood;Shopping;Fruits & Veggies;Food
5686,mLjDh0vQYBCY6g9T1HczVw,"""Great Lakes Brewing Co""",Riverside,"""5300 Riverside Dr""",Cleveland,OH,44135,41.4080424505,-81.8411984629,3.0,133,1,Brewpubs;American (Traditional);Restaurants;Bars;Breweries;Pubs;Nightlife;Food
5701,-WnpBf7pAJNNFdvhv2sE5g,"""Chuck's Grill""",Derita,"""8001 Old Statesville Rd""",Charlotte,NC,28269,35.33005,-80.826374,4.0,47,1,American (Traditional);Mediterranean;Breakfast & Brunch;Restaurants;Greek
5712,XiMvHK4Nq0xPa1GOtdKzdA,"""Bong Lua Vietnamese Restaurant""",Scarborough,"""Huntingwood Square, 2572 Birchmount Road""",Scarborough,ON,M1T 3H1,43.7895685,-79.3025887,3.5,120,1,Restaurants;Vietnamese
5713,J3pAkjiicmJzXRIEDZInEA,"""Panda Peng""",Laval,"""840 boul le Corbusier""",Laval,QC,H7N 0A8,45.556989,-73.724304,3.5,6,1,Buffets;Chinese;Restaurants
5730,-UV2tt3gy57-5a29paA_4w,"""Sub One Hoagie House""",Fourth Ward,"""516 N Graham St""",Charlotte,NC,28202,35.2340477,-80.841786,4.5,41,1,Sandwiches;Restaurants
5734,n28_5ElTCVkhP-9BTgQGgg,"""IHOP""",Bluff Acres,"""4614 E Washington Ave""",Madison,WI,53704,43.1301419411,-89.3064034109,2.0,24,1,American (New);American (Traditional);Breakfast & Brunch;Restaurants
5747,sa1ZAswk7kEQfg9Mb6iQwQ,"""L'Unita""",The Annex,"""134 Avenue Road""",Toronto,ON,M5R 2H6,43.6743735,-79.3967073,4.5,89,1,Italian;Restaurants
5771,Ehy00JWQixgoXzisVKhvag,"""Cucina by Wolfgang Puck""",The Strip,"""3720 S Las Vegas Blvd""",Las Vegas,NV,89158,36.107676716,-115.17506169,4.0,754,1,Italian;Restaurants;Pizza
5774,G0qkCFSRB8aMzTW1O9Q5RA,"""Le Grand Ribfest de Montréal""",Ville-Marie,"""80 Rue de la Commune E""",Montréal,QC,H2Y 2E2,45.5067401,-73.5524029,5.0,7,1,Festivals;Arts & Entertainment;Restaurants;American (Traditional);Barbeque
5776,oqqBEXH84dJgBlfEMA69XA,"""Cafe Mucho Gusto""",Rosemont-La Petite-Patrie,"""2536 Rue Beaubien E""",Montréal,QC,H1Y 1G3,45.549439,-73.5911274,4.0,7,1,Internet Cafes;Cafes;Coffee & Tea;Food;Restaurants
5779,uz8ISWdE0OSJBjArw4P4Og,"""Mellow Mushroom""",Uptown,"""255 W Martin Luther King Blvd""",Charlotte,NC,28202,35.2258610579,-80.8477123135,3.0,162,1,Bars;Sandwiches;Pizza;Restaurants;Salad;Nightlife;Gluten-Free
5797,vqv2lIEH4hJN9BbMt2LiWA,"""Menalon Restaurant""",Bickford Park,"""841 Bloor St W""",Toronto,ON,M6G 1M3,43.6623773,-79.423416,4.0,8,1,Restaurants;Greek
5803,Jwp4UFa93ENe-0REPo5hCQ,"""The Cafe Royal""",New Town,"""19 W Register Street""",Edinburgh,EDH,EH2 2AA,55.9538098243,-3.1906367324,4.0,74,1,Restaurants;Bars;Nightlife;British;Seafood
5836,Q6kZqLHy-ikjMW-lBCXnKA,"""Tequileria Grille""",Southeast,"""5757 Wayne Newton Blvd""",Las Vegas,NV,89119,36.080609,-115.146624,2.0,32,1,Tex-Mex;Specialty Food;Food;Ethnic Food;Restaurants;Imported Food
5876,YFpgERPB2s8KYRlBtkIFjw,"""Starbucks""",Ville-Marie,"""474 Mcgill Street""",Montréal,QC,H2Y 2H2,45.500806,-73.5590732,3.5,8,1,Food;Cafes;Coffee & Tea;Restaurants
5881,wJnhUJCOYkncLPZAwaMffA,"""Room 112""",Uptown,"""112 S Tryon St""",Charlotte,NC,28284,35.2270964,-80.8438287,3.5,228,1,Soup;Asian Fusion;Sushi Bars;Chinese;Restaurants
5922,EY4xsGDe0euyusOfAb3Cwg,"""The Fresh Italian Eatery""",Downtown Core,"""42-109 McCaul Street""",Toronto,ON,M5T 2W7,43.6542188964,-79.3907314539,3.5,15,1,Italian;Food Court;Restaurants
5935,pnStRO16rw-jXa9S2FQoEg,"""Alexandria Cafe""",Scarborough,"""1940 Lawrence Avenue E""",Toronto,ON,M1R 2Y7,43.7445755649,-79.3000782438,2.0,16,1,Coffee & Tea;Donairs;Food;Restaurants;Nightlife;Middle Eastern;Bars;Hookah Bars
5939,9i7Gz3xaa-gwh1Fi3q1_kA,"""BlueBlood Steakhouse""",Casa Loma,"""1 Austin Terrace""",Toronto,ON,M5R 1X8,43.6780882,-79.409401,4.0,28,1,Steakhouses;Restaurants
5946,yPR8Bh55-9NXmooZS7lrLA,"""Royal Congee Chinese Cuisine""",Scarborough,"""4 Greystone Walk Drive, Unit 2""",Toronto,ON,M1K 5J2,43.7244521,-79.2523951,4.0,11,1,Food Delivery Services;Restaurants;Chinese;Food
5949,-25X5v1q3WU6s-craJSvTw,"""Wok Terminal""",Etobicoke,"""156 The Queensway""",Etobicoke,ON,M8Y 1J2,43.630542,-79.484787,3.0,18,1,Restaurants;Ethnic Food;Imported Food;Specialty Food;Food;Chinese
5959,GGEeGKUez_pGqYXtk-sKvQ,"""Kelly O's Diner""",Strip District,"""2400 Smallman St""",Pittsburgh,PA,15222,40.4540188,-79.9812264,4.0,175,1,Restaurants;Breakfast & Brunch;Diners
5965,Bj38QpVs5FPd-YBYGlMw9w,"""George Street Area""",New Town,"""George St, New Town""",Edinburgh,EDH,EH2 2,55.9529237,-3.2004714,3.5,11,1,Restaurants;Local Flavor;Shopping Centers;Shopping
5972,KWxTv7S3cWaMhv3QiW5C2g,"""La Tapenade Mediterranean Cafe""",Southeast,"""5757 Wayne Newton Blvd""",Las Vegas,NV,89111,36.0804093081,-115.133261021,2.0,17,1,Food;Restaurants;Mediterranean
5974,9k0kY4_NNu66MHYiruokjQ,"""Coffey Creek Cafe""",Steele Creek,"""1700 Center Park Dr""",Charlotte,NC,28217,35.174988,-80.9271542,3.0,11,1,Sandwiches;Restaurants
5988,qhKNZTtTT6GLnPzQny-v9Q,"""Nirala Sweets & Restaurant""",Scarborough,"""2818 Markham Road""",Scarborough,ON,M1X 1E6,43.8229066,-79.2475051,4.0,11,1,Restaurants;Halal;Indian;Pakistani
5999,aBWyWwkxOgfVbEhz8dIQxw,"""The Kebab House""",Etobicoke,"""2977 Lakeshore Boulevard W""",Toronto,ON,M8V 1J8,43.6003193,-79.506907,3.0,8,1,Middle Eastern;Food;Restaurants
6003,_BJ2lBc1TWwIfxNzXbaaBA,"""District 28 Bar Bistro""",Leslieville,"""28 Logan Avenue""",Toronto,ON,M4M 2M8,43.6553283,-79.340498,3.0,10,1,Venues & Event Spaces;Breakfast & Brunch;Restaurants;Bars;Cafes;Burgers;Event Planning & Services;Nightlife;Sandwiches
6027,vAgV7hgQF8IazGNRlNtDiw,"""Pizza Hut""",South Park,"""7802A Fairview Rd""",Charlotte,NC,28226,35.146999,-80.80925,2.0,24,1,Pizza;Italian;Restaurants;Chicken Wings
6049,hPUd4f1egKtHCRlsieH3Vg,"""Coffee and All That Jazz""",High Park,"""72 Howard Park Avenue""",Toronto,ON,M6R 1V6,43.6515296,-79.4515923,3.5,18,1,Food;Cafes;Coffee & Tea;Restaurants
6065,0-yj2jtzLUHG2b7PpEHyog,"""Rendez-Vous""",The Danforth,"""1408 Danforth Avenue""",Toronto,ON,M4J 1M9,43.6826502,-79.3275985,4.0,70,1,Restaurants;Bars;Ethiopian;Nightlife
6085,VsIx1NnhM5PA8prJjIZNYg,"""Mermaid Restaurant & Lounge""",Southwest,"""3333 Blue Diamond Rd""",Las Vegas,NV,89139,36.0412834,-115.1833103,3.5,58,1,Restaurants;Nightlife;Bars;Lounges
6104,lCZQuid0eBe_5ZHOW2xNFg,"""The Golden Chopstick""",Scarborough,"""271 Old Kingston Road, Unit 103""",Scarborough,ON,M1C 1B4,43.7818819,-79.1729042,3.0,6,1,Chinese;Restaurants
